id,pesid,data_inversa,dia_semana,horario,uf,br,km,municipio,causa_principal,causa_acidente,ordem_tipo_acidente,tipo_acidente,classificacao_acidente,fase_dia,sentido_via,condicao_metereologica,tipo_pista,tracado_via,uso_solo,id_veiculo,tipo_veiculo,marca,ano_fabricacao_veiculo,tipo_envolvido,estado_fisico,idade,sexo,ilesos,feridos_leves,feridos_graves,mortos,latitude,longitude,regional,delegacia,uop,marca_limpa,modelo,gravidade,regiao,hora,periodo
657926,1482717,2025-01-28,terça-feira,17:35:00,RS,116,"551,9",CAPAO DO LEAO,Sim,Ausência de reação do condutor,1,Tombamento,Com Vítimas Feridas,Pleno dia,Crescente,Céu Claro,Simples,Reta,Não,1183225,Motocicleta,HONDA/CG 150 TITAN ESD,2004,Passageiro,Lesões Leves,46,Masculino,0,1,0,0,-31.86859597,-52.61260502,SPRF-RS,DEL07-RS,UOP03-DEL07-RS,HONDA,CG 150 TITAN ESD,Leve,Sul,17,Tarde
670655,1513605,2025-03-31,segunda-feira,02:45:00,BA,407,"143,7",SENHOR DO BONFIM,Não,Condutor Dormindo,3,Queda de ocupante de veículo,Com Vítimas Fatais,Plena Noite,Crescente,Céu Claro,Simples,Reta;Aclive,Não,1207651,Caminhão-trator,SCANIA/R450 A6X2,2022,Condutor,Ileso,44,Masculino,1,0,0,0,-10.6026583,-40.1328067,SPRF-BA,DEL04-BA,UOP01-DEL04-BA,SCANIA,R450 A6X2,Sem Feridos,Nordeste,2,Madrugada
693369,1541777,2025-05-24,sábado,09:00:00,GO,60,366,RIO VERDE,Não,Velocidade Incompatível,5,Colisão com objeto,Com Vítimas Feridas,Pleno dia,Crescente,Céu Claro,Dupla,Reta,Não,1230007,Automóvel,FORD/FIESTA HA 1.5L S,2013,Passageiro,Lesões Leves,39,Feminino,0,1,0,0,-17.677562,-50.829735,SPRF-GO,DEL04-GO,UOP02-DEL04-GO,FORD,FIESTA HA 1.5L S,Leve,Centro-Oeste,9,Manhã
701526,1561285,2025-06-30,segunda-feira,09:00:00,CE,116,"193,9",LIMOEIRO DO NORTE,Não,Reação tardia ou ineficiente do condutor,2,Saída de leito carroçável,Com Vítimas Feridas,Pleno dia,Crescente,Céu Claro,Simples,Reta;Rotatória,Não,1245868,Automóvel,I/FIAT SIENA EL FLEX,2011,Condutor,Ileso,71,Masculino,1,0,0,0,-5.150485,-38.155456,SPRF-CE,DEL03-CE,UOP01-DEL03-CE,I,FIAT SIENA EL FLEX,Sem Feridos,Nordeste,9,Manhã
667249,1505587,2025-03-14,sexta-feira,18:10:00,PR,376,"597,5",CURITIBA,Não,Velocidade Incompatível,1,Colisão traseira,Com Vítimas Feridas,Anoitecer,Crescente,Nublado,Dupla,Reta;Aclive,Sim,1201130,Caminhão,FORD/CARGO 2422 E,2007,Condutor,Ileso,44,Masculino,1,0,0,0,-25.48197043,-49.34868835,SPRF-PR,DEL01-PR,UOP06-DEL01-PR,FORD,CARGO 2422 E,Sem Feridos,Sul,18,Noite
697806,1552266,2025-06-13,sexta-feira,07:55:00,RS,290,92,PORTO ALEGRE,Sim,Reação tardia ou ineficiente do condutor,2,Queda de ocupante de veículo,Com Vítimas Feridas,Pleno dia,Decrescente,Céu Claro,Múltipla,Reta,Não,1238556,Motocicleta,HONDA/CG 125 FAN KS,2011,Condutor,Lesões Leves,22,Masculino,0,1,0,0,-29.97116171,-51.18787162,SPRF-RS,DEL01-RS,UOP01-DEL01-RS,HONDA,CG 125 FAN KS,Leve,Sul,7,Manhã
654569,1473428,2025-01-12,domingo,05:45:00,PI,316,"38,1",LAGOA DO PIAUI,Sim,Ultrapassagem Indevida,2,Colisão frontal,Com Vítimas Fatais,Amanhecer,Crescente,Nublado,Simples,Reta,Não,1176872,Caminhonete,NISSAN/FRONTIER SVATK4X2,2015,Condutor,Óbito,52,Masculino,0,0,0,1,-5.398115,-42.655895,SPRF-PI,DEL01-PI,UOP02-DEL01-PI,NISSAN,FRONTIER SVATK4X2,Fatal,Nordeste,5,Manhã
700093,1557847,2025-06-23,segunda-feira,20:30:00,SP,116,219,GUARULHOS,Sim,Trafegar com motocicleta (ou similar) entre as faixas,1,Colisão lateral mesmo sentido,Com Vítimas Feridas,Plena Noite,Decrescente,Nublado,Múltipla,Reta,Não,1243063,Motocicleta,YAMAHA/FACTOR YBR125 K,2011,Condutor,Lesões Leves,26,Masculino,0,1,0,0,-23.46413221,-46.49657473,SPRF-SP,DEL01-SP,UOP01-DEL01-SP,YAMAHA,FACTOR YBR125 K,Leve,Sudeste,20,Noite
671331,1515363,2025-04-03,quinta-feira,18:20:00,RN,110,"47,7",MOSSORO,Sim,Acessar a via sem observar a presença dos outros veículos,1,Colisão transversal,Com Vítimas Feridas,Plena Noite,Crescente,Céu Claro,Simples,Reta,Sim,1209116,Caminhonete,FIAT/STRADA ENDURANCE CS,2023,Condutor,Ileso,34,Masculino,1,0,0,0,-5.208,-37.331,SPRF-RN,DEL04-RN,UOP01-DEL04-RN,FIAT,STRADA ENDURANCE CS,Sem Feridos,Nordeste,18,Noite
686828,1525923,2025-04-23,quarta-feira,05:20:00,RJ,116,190,NOVA IGUACU,Sim,Iluminação deficiente,1,Colisão traseira,Com Vítimas Feridas,Amanhecer,Decrescente,Céu Claro,Dupla,Reta,Sim,1217355,Motocicleta,HONDA/NXR160 BROS ESDD,2018,Condutor,Lesões Leves,64,Masculino,0,1,0,0,-22.73911471,-43.49475352,SPRF-RJ,DEL06-RJ,UOP01-DEL06-RJ,HONDA,NXR160 BROS ESDD,Leve,Sudeste,5,Manhã
693521,1542113,2025-05-24,sábado,12:35:00,MT,163,865,SINOP,Sim,Ultrapassagem Indevida,4,Saída de leito carroçável,Com Vítimas Feridas,Pleno dia,Decrescente,Céu Claro,Simples,Reta;Aclive,Não,1230230,Caminhão-trator,M.BENZ/ACTROS 2653S,2024,Condutor,Lesões Graves,50,Masculino,0,0,1,0,-11.60308,-55.42807,SPRF-MT,DEL06-MT,UOP02-DEL06-MT,M.BENZ,ACTROS 2653S,Grave,Centro-Oeste,12,Tarde
695987,1547996,2025-06-05,quinta-feira,07:10:00,PE,428,85,SANTA MARIA DA BOA VISTA,Não,Manobra de mudança de faixa,2,Tombamento,Com Vítimas Feridas,Pleno dia,Crescente,Céu Claro,Simples,Reta;Declive,Não,1235011,Motocicleta,HONDA/CG 125 TITAN KSE,0,Passageiro,Lesões Graves,40,Masculino,0,0,1,0,-8.79462,-39.840635,SPRF-PE,DEL06-PE,UOP03-DEL06-PE,HONDA,CG 125 TITAN KSE,Grave,Nordeste,7,Manhã
659125,1485557,2025-01-18,sábado,17:15:00,RR,174,536,BOA VISTA,Sim,Condutor deixou de manter distância do veículo da frente,2,Saída de leito carroçável,Com Vítimas Feridas,Pleno dia,Decrescente,Céu Claro,Simples,Reta,Não,1185508,Ônibus,VOLVO/MPOLO PARADISO DD,2015,Passageiro,Ileso,,Feminino,1,0,0,0,3.05651,-60.79826,SPRF-RR,DEL01-RR,UOP01-DEL01-RR,VOLVO,MPOLO PARADISO DD,Sem Feridos,Norte,17,Tarde
657743,1482185,2025-01-27,segunda-feira,17:38:00,CE,116,12,FORTALEZA,Sim,Ausência de reação do condutor,1,Colisão traseira,Com Vítimas Feridas,Anoitecer,Decrescente,Céu Claro,Dupla,Reta,Não,1183000,Automóvel,RENAULT/DUSTER ICO16 CVT,2020,Condutor,Ileso,43,Masculino,1,0,0,0,-3.852077,-38.495525,SPRF-CE,DEL01-CE,UOP02-DEL01-CE,RENAULT,DUSTER ICO16 CVT,Sem Feridos,Nordeste,17,Tarde
660733,1489651,2025-02-11,terça-feira,08:50:00,MG,251,"328,7",FRUTA DE LEITE,Não,Velocidade Incompatível,3,Derramamento de carga,Com Vítimas Feridas,Pleno dia,Crescente,Nublado,Simples,Curva;Declive,Não,1188585,Caminhão-trator,VOLVO/FH 540 6X4T,2014,Condutor,Lesões Leves,28,Masculino,0,1,0,0,-16.2346643,-42.3810659,SPRF-MG,DEL12-MG,UOP02-DEL12-MG,VOLVO,FH 540 6X4T,Leve,Sudeste,8,Manhã
698806,1554630,2025-06-17,terça-feira,19:55:00,ES,101,"49,7",CONCEICAO DA BARRA,Sim,Condutor deixou de manter distância do veículo da frente,1,Colisão lateral mesmo sentido,Com Vítimas Feridas,Pleno dia,Crescente,Garoa/Chuvisco,Simples,Rotatória,Sim,1240540,Motocicleta,HONDA/CG 160 TITAN,2023,Condutor,Lesões Leves,51,Feminino,0,1,0,0,-18.58279993,-39.89322679,SPRF-ES,DEL04-ES,UOP02-DEL04-ES,HONDA,CG 160 TITAN,Leve,Sudeste,19,Noite
695579,1546959,2025-06-03,terça-feira,14:15:00,SC,101,150,ITAPEMA,Sim,Acessar a via sem observar a presença dos outros veículos,1,Colisão transversal,Com Vítimas Feridas,Pleno dia,Crescente,Céu Claro,Simples,Reta,Sim,1234175,Motocicleta,YAMAHA/FZ15 FAZER ABS,2023,Passageiro,Lesões Graves,22,Masculino,0,0,1,0,-27.11626678,-48.60974345,SPRF-SC,DEL04-SC,UOP03-DEL04-SC,YAMAHA,FZ15 FAZER ABS,Grave,Sul,14,Tarde
692828,1540473,2025-05-21,quarta-feira,19:35:00,PR,277,"517,5",GUARANIACU,Sim,Acessar a via sem observar a presença dos outros veículos,2,Saída de leito carroçável,Sem Vítimas,Plena Noite,Crescente,Chuva,Simples,Reta;Declive,Não,1228906,Automóvel,GM/CORSA WIND,1996,Condutor,Não Informado,,Não Informado,0,0,0,0,-25.1107,-52.8492,SPRF-PR,DEL04-PR,UOP04-DEL04-PR,GM,CORSA WIND,Sem Feridos,Sul,19,Noite
686517,1525052,2025-04-21,segunda-feira,16:40:00,SC,470,"134,7",RIO DO SUL,Sim,Reação tardia ou ineficiente do condutor,1,Engavetamento,Com Vítimas Feridas,Pleno dia,Crescente,Nublado,Simples,Reta,Sim,1216695,Automóvel,GM/CELTA 2P SPIRIT,2010,Condutor,Ileso,29,Masculino,1,0,0,0,-27.17972,-49.59801,SPRF-SC,DEL04-SC,UOP02-DEL04-SC,GM,CELTA 2P SPIRIT,Sem Feridos,Sul,16,Tarde
694371,1544037,2025-05-29,quinta-feira,04:00:00,TO,235,198,FORTALEZA DO TABOCAO,Sim,Condutor deixou de manter distância do veículo da frente,1,Colisão traseira,Com Vítimas Feridas,Plena Noite,Crescente,Céu Claro,Simples,Reta,Não,1231856,Motocicleta,HONDA/150,0,Passageiro,Lesões Leves,0,Masculino,0,1,0,0,-8.93494037,-48.45324576,SPRF-TO,DEL02-TO,UOP02-DEL02-TO,HONDA,150,Leve,Norte,4,Madrugada
662897,1494949,2025-02-22,sábado,06:00:00,PR,487,"108,3",CRUZEIRO DO OESTE,Sim,Ingestão de álcool pelo condutor,2,Colisão com objeto,Com Vítimas Feridas,Amanhecer,Decrescente,Nublado,Simples,Reta,Não,1192793,Automóvel,CHEV/ONIX 10TAT LT1,2019,Condutor,Ileso,66,Feminino,1,0,0,0,-23.80100732,-53.02503526,SPRF-PR,DEL09-PR,UOP03-DEL09-PR,CHEV,ONIX 10TAT LT1,Sem Feridos,Sul,6,Manhã
666131,1502863,2025-03-09,domingo,10:00:00,MS,163,485,CAMPO GRANDE,Não,Velocidade Incompatível,4,Colisão traseira,Com Vítimas Feridas,Pleno dia,Crescente,Céu Claro,Simples,Aclive;Reta,Não,1198987,Motocicleta,HONDA/CG 160 FAN,2018,Condutor,Lesões Leves,29,Feminino,0,1,0,0,-20.43728,-54.543021,SPRF-MS,DEL01-MS,UOP02-DEL01-MS,HONDA,CG 160 FAN,Leve,Centro-Oeste,10,Manhã
692364,1541221,2025-05-19,segunda-feira,15:14:00,PE,101,48,ABREU E LIMA,Não,Avarias e/ou desgaste excessivo no pneu,2,Queda de ocupante de veículo,Com Vítimas Feridas,Pleno dia,Decrescente,Céu Claro,Simples,Retorno Regulamentado;Reta,Sim,1228013,Motocicleta,HONDA/CG 160 START,2023,Passageiro,Lesões Leves,24,Feminino,0,1,0,0,-7.892915,-34.903258,SPRF-PE,DEL01-PE,UOP02-DEL01-PE,HONDA,CG 160 START,Leve,Nordeste,15,Tarde
657921,1482468,2025-01-28,terça-feira,14:30:00,GO,60,133,GOIANIA,Sim,Ausência de reação do condutor,2,Colisão com objeto,Com Vítimas Feridas,Pleno dia,Crescente,Céu Claro,Dupla,Declive,Não,1183210,Motocicleta,TRIUMPH/TIGER XCX,2017,Condutor,Lesões Graves,43,Masculino,0,0,1,0,-16.5815,-49.1772,SPRF-GO,DEL01-GO,UOP01-DEL01-GO,TRIUMPH,TIGER XCX,Grave,Centro-Oeste,14,Tarde
667730,1506763,2025-03-16,domingo,18:00:00,PI,407,538,JACOBINA DO PIAUI,Não,Transitar na contramão,2,Queda de ocupante de veículo,Com Vítimas Feridas,Plena Noite,Decrescente,Céu Claro,Simples,Reta,Não,1202016,Ciclomotor,I/HAOJIAN AVELLOZ AZ1,2024,Condutor,Lesões Graves,21,Masculino,0,0,1,0,-7.860688,-41.207317,SPRF-PI,DEL04-PI,UOP01-DEL04-PI,I,HAOJIAN AVELLOZ AZ1,Grave,Nordeste,18,Noite
696585,1549335,2025-06-07,sábado,18:15:00,MG,251,206,AGUAS VERMELHAS,Sim,Demais falhas mecânicas ou elétricas,2,Derramamento de carga,Sem Vítimas,Anoitecer,Decrescente,Céu Claro,Simples,Reta,Não,1236144,Caminhão-trator,VOLVO/FH 440 6X2T,2010,Condutor,Ileso,46,Masculino,1,0,0,0,-15.864405,-41.508726,SPRF-MG,DEL12-MG,UOP02-DEL12-MG,VOLVO,FH 440 6X2T,Sem Feridos,Sudeste,18,Noite
663998,1497602,2025-02-27,quinta-feira,11:30:00,RJ,101,12,CAMPOS DOS GOYTACAZES,Sim,Retorno proibido,1,Colisão transversal,Com Vítimas Feridas,Pleno dia,Decrescente,Céu Claro,Simples,Interseção de Vias;Reta,Não,1194919,Automóvel,I/FIAT CRONOS DRIVE 1.3,2019,Condutor,Lesões Leves,76,Masculino,0,1,0,0,-21.3213548,-41.3286835,SPRF-RJ,DEL08-RJ,UOP01-DEL08-RJ,I,FIAT CRONOS DRIVE 1.3,Leve,Sudeste,11,Manhã
668908,1509517,2025-03-22,sábado,19:00:00,SC,101,"331,7",TUBARAO,Sim,Ausência de reação do condutor,1,Colisão traseira,Com Vítimas Feridas,Plena Noite,Crescente,Céu Claro,Múltipla,Reta,Sim,1204262,Caminhonete,I/TOYOTA HILUX CDSRXA4RD,2024,Condutor,Ileso,71,Masculino,1,0,0,0,-28.46530018,-48.99438674,SPRF-SC,DEL02-SC,UOP01-DEL02-SC,I,TOYOTA HILUX CDSRXA4RD,Sem Feridos,Sul,19,Noite
652710,1469882,2025-01-02,quinta-feira,05:30:00,MG,251,457,GRAO MOGOL,Sim,Reação tardia ou ineficiente do condutor,1,Saída de leito carroçável,Com Vítimas Feridas,Pleno dia,Crescente,Chuva,Simples,Curva,Não,1173328,Caminhonete,I/TOYOTA HILUX CDSRVA4FD,2017,Passageiro,Lesões Leves,30,Feminino,0,1,0,0,-16.41138662,-43.37539673,SPRF-MG,DEL12-MG,UOP01-DEL12-MG,I,TOYOTA HILUX CDSRVA4FD,Leve,Sudeste,5,Manhã
700450,1558740,2025-06-25,quarta-feira,15:10:00,RN,101,"68,7",EXTREMOZ,Sim,Mal súbito do condutor,1,Colisão frontal,Com Vítimas Feridas,Pleno dia,Crescente,Céu Claro,Simples,Reta,Não,1243816,Caminhão,VOLVO/VM 270 6X2R,2019,Condutor,Ileso,50,Masculino,1,0,0,0,-5.670147,-35.257178,SPRF-RN,DEL02-RN,UOP01-DEL02-RN,VOLVO,VM 270 6X2R,Sem Feridos,Nordeste,15,Tarde
698956,1555003,2025-06-13,sexta-feira,12:50:00,BA,324,548,AMELIA RODRIGUES,Sim,Ausência de reação do condutor,1,Engavetamento,Com Vítimas Feridas,Pleno dia,Decrescente,Chuva,Dupla,Reta,Não,1240850,Automóvel,VW/GOL 1.0 GIV,2008,Condutor,Ileso,59,Masculino,1,0,0,0,-12.47596738,-38.67565155,SPRF-BA,DEL01-BA,UOP03-DEL01-BA,VW,GOL 1.0 GIV,Sem Feridos,Nordeste,12,Tarde
658347,1483658,2025-01-30,quinta-feira,19:45:00,MT,364,"579,9",DIAMANTINO,Sim,Reação tardia ou ineficiente do condutor,2,Tombamento,Com Vítimas Feridas,Plena Noite,Decrescente,Chuva,Dupla,Reta;Declive,Não,1184102,Caminhão-trator,SCANIA/T113 H 4X2 360,1992,Condutor,Lesões Leves,54,Masculino,0,1,0,0,-14.66298789,-56.29936934,SPRF-MT,DEL01-MT,UOP01-DEL01-MT,SCANIA,T113 H 4X2 360,Leve,Centro-Oeste,19,Noite
700639,1559376,2025-06-26,quinta-feira,14:20:00,SP,116,218,GUARULHOS,Sim,Trafegar com motocicleta (ou similar) entre as faixas,2,Queda de ocupante de veículo,Com Vítimas Feridas,Pleno dia,Crescente,Céu Claro,Múltipla,Reta,Sim,1244306,Motocicleta,HONDA/CG 160 START,2022,Condutor,Lesões Leves,32,Masculino,0,1,0,0,-23.460637,-46.488197,SPRF-SP,DEL01-SP,UOP01-DEL01-SP,HONDA,CG 160 START,Leve,Sudeste,14,Tarde
669820,1512065,2025-03-27,quinta-feira,09:15:00,RN,101,95,NATAL,Sim,Condutor deixou de manter distância do veículo da frente,1,Colisão traseira,Com Vítimas Feridas,Pleno dia,Decrescente,Céu Claro,Múltipla,Reta,Sim,1206250,Automóvel,VW/FOX 1.6 GII,2012,Condutor,Ileso,39,Masculino,1,0,0,0,-5.84252132,-35.20959377,SPRF-RN,DEL01-RN,UOP01-DEL01-RN,VW,FOX 1.6 GII,Sem Feridos,Nordeste,9,Manhã
686136,1524060,2025-04-20,domingo,08:45:00,SP,153,"83,6",MIRASSOL,Sim,Reação tardia ou ineficiente do condutor,1,Colisão traseira,Com Vítimas Feridas,Pleno dia,Crescente,Céu Claro,Dupla,Aclive,Não,,,,,Testemunha,Não Informado,,Não Informado,0,0,0,0,-20.926547,-49.50951,SPRF-SP,DEL09-SP,UOP01-DEL09-SP,,,Sem Feridos,Sudeste,8,Manhã
663822,1497144,2025-02-26,quarta-feira,10:00:00,RJ,101,286,ITABORAI,Não,Reação tardia ou ineficiente do condutor,3,Colisão com objeto,Com Vítimas Feridas,Pleno dia,Decrescente,Céu Claro,Múltipla,Reta,Não,1194568,Automóvel,CHEV/SPIN 1.8L AT ACT7,2018,Condutor,Lesões Leves,50,Masculino,0,1,0,0,-22.75917478,-42.8403643,SPRF-RJ,DEL02-RJ,UOP02-DEL02-RJ,CHEV,SPIN 1.8L AT ACT7,Leve,Sudeste,10,Manhã
700132,,2025-06-24,terça-feira,02:55:00,MG,381,"688,1",LAVRAS,Não,Reação tardia ou ineficiente do condutor,2,Colisão traseira,Com Vítimas Feridas,Plena Noite,Decrescente,Nublado,Dupla,Curva;Declive,Não,1243151,Semireboque,SR/DAMBROZ EA113E,1999,,,,,,,,,-21.21737985,-45.1265452,SPRF-MG,DEL04-MG,UOP02-DEL04-MG,SR,DAMBROZ EA113E,Sem Feridos,Sudeste,2,Madrugada
687728,1528134,2025-04-27,domingo,01:00:00,SC,280,"30,1",ARAQUARI,Sim,Ingestão de álcool pelo condutor,1,Saída de leito carroçável,Sem Vítimas,Plena Noite,Decrescente,Ignorado,Simples,Reta,Não,1219024,Caminhonete,FIAT/FIORINO HD WK E,2019,Condutor,Ileso,33,Masculino,1,0,0,0,-26.44794451,-48.84565734,SPRF-SC,DEL03-SC,UOP03-DEL03-SC,FIAT,FIORINO HD WK E,Sem Feridos,Sul,1,Madrugada
659392,1486395,2025-02-02,domingo,06:00:00,SC,116,"216,9",PONTE ALTA,Não,Velocidade Incompatível,1,Saída de leito carroçável,Com Vítimas Feridas,Amanhecer,Decrescente,Nublado,Simples,Curva,Não,1186048,Automóvel,HONDA/CIVIC LXS,2007,Condutor,Lesões Leves,28,Masculino,0,1,0,0,-27.54634396,-50.3770563,SPRF-SC,DEL05-SC,UOP03-DEL05-SC,HONDA,CIVIC LXS,Leve,Sul,6,Manhã
673171,1519652,2025-04-12,sábado,11:35:00,PR,277,303,PRUDENTOPOLIS,Sim,Acesso irregular,1,Colisão transversal,Sem Vítimas,Pleno dia,Crescente,Céu Claro,Simples,Reta,Não,1212618,Camioneta,FIAT/PULSE ABARTH 270,2023,Passageiro,Ileso,29,Feminino,1,0,0,0,-25.31242906,-51.17251104,SPRF-PR,DEL08-PR,UOP01-DEL08-PR,FIAT,PULSE ABARTH 270,Sem Feridos,Sul,11,Manhã
690898,1540599,2025-05-12,segunda-feira,19:30:00,DF,40,"1,6",BRASILIA,Não,Reação tardia ou ineficiente do condutor,2,Tombamento,Com Vítimas Feridas,Plena Noite,Crescente,Céu Claro,Dupla,Reta,Sim,1228862,Semireboque,,0,Condutor,Não Informado,,Não Informado,0,0,0,0,-15.990968,-47.986707,SPRF-DF,DEL01-DF,UOP01-DEL01-DF,,,Sem Feridos,Centro-Oeste,19,Noite
692202,1540793,2025-05-18,domingo,22:30:00,CE,116,298,JAGUARIBE,Sim,Ingestão de álcool pelo condutor,1,Colisão lateral sentido oposto,Sem Vítimas,Plena Noite,Crescente,Céu Claro,Simples,Reta,Não,1227686,Ônibus,SCANIA/BUSSCAR J B 400 R,2000,Passageiro,Ileso,,Feminino,1,0,0,0,-5.838956,-38.559692,SPRF-CE,DEL05-CE,UOP02-DEL05-CE,SCANIA,BUSSCAR J B 400 R,Sem Feridos,Nordeste,22,Noite
696332,1548993,2025-06-06,sexta-feira,19:15:00,SP,116,408,MIRACATU,Sim,Ausência de reação do condutor,1,Colisão traseira,Com Vítimas Feridas,Plena Noite,Decrescente,Chuva,Simples,Reta,Sim,1235822,Automóvel,GM/CORSA WIND,1999,Condutor,Ileso,23,Feminino,1,0,0,0,-24.32707654,-47.56547928,SPRF-SP,DEL05-SP,UOP01-DEL05-SP,GM,CORSA WIND,Sem Feridos,Sudeste,19,Noite
652635,1469921,2025-01-01,quarta-feira,18:22:00,CE,116,68,CHOROZINHO,Sim,Transitar na contramão,2,Colisão frontal,Com Vítimas Fatais,Anoitecer,Decrescente,Céu Claro,Simples,Reta,Não,1173270,Utilitário,I/TOYOTA HILUX SWSRXA4FD,2017,Condutor,Não Informado,,Não Informado,0,0,0,0,-4.3140702,-38.49723925,SPRF-CE,DEL01-CE,UOP02-DEL01-CE,I,TOYOTA HILUX SWSRXA4FD,Sem Feridos,Nordeste,18,Noite
672189,1517282,2025-04-03,quinta-feira,07:30:00,PA,155,70,RIO MARIA,Sim,Reação tardia ou ineficiente do condutor,1,Saída de leito carroçável,Sem Vítimas,Pleno dia,Crescente,Ignorado,Simples,Reta,Não,1210623,Caminhão-trator,DAF/XF FTS 480,2022,Condutor,Ileso,,Masculino,1,0,0,0,-7.3853391,-50.04110858,SPRF-PA,DEL03-PA,UOP01-DEL03-PA,DAF,XF FTS 480,Sem Feridos,Norte,7,Manhã
656259,1478325,2025-01-20,segunda-feira,12:28:00,PE,232,"7,8",RECIFE,Sim,Condutor deixou de manter distância do veículo da frente,3,Queda de ocupante de veículo,Com Vítimas Feridas,Pleno dia,Decrescente,Céu Claro,Dupla,Reta,Não,1180181,Motocicleta,YAMAHA/FZ15 FAZER ABS,2022,Condutor,Lesões Leves,34,Masculino,0,1,0,0,-8.07333497,-34.96184301,SPRF-PE,DEL01-PE,UOP01-DEL01-PE,YAMAHA,FZ15 FAZER ABS,Leve,Nordeste,12,Tarde
695988,,2025-03-30,domingo,17:00:00,BA,242,267,BOA VISTA DO TUPIM,Não,Velocidade Incompatível,2,Saída de leito carroçável,Com Vítimas Fatais,Anoitecer,Decrescente,Céu Claro,Simples,Reta;Declive,Não,1234932,Semireboque,SR/GUERRA AG GR,2004,,,,,,,,,-12.453237,-40.593145,SPRF-BA,DEL06-BA,UOP02-DEL06-BA,SR,GUERRA AG GR,Sem Feridos,Nordeste,17,Tarde
687459,1527537,2025-04-26,sábado,13:12:00,PE,104,66,CARUARU,Sim,Condutor deixou de manter distância do veículo da frente,1,Colisão traseira,Com Vítimas Feridas,Pleno dia,Decrescente,Céu Claro,Dupla,Reta;Viaduto;Aclive,Sim,1218575,Motocicleta,HONDA/CG 125 FAN KS,2011,Condutor,Lesões Leves,35,Masculino,0,1,0,0,-8.28646,-35.98375,SPRF-PE,DEL02-PE,UOP01-DEL02-PE,HONDA,CG 125 FAN KS,Leve,Nordeste,13,Tarde
687928,1528628,2025-04-28,segunda-feira,19:15:00,GO,60,378,RIO VERDE,Não,Manobra de mudança de faixa,3,Queda de ocupante de veículo,Com Vítimas Feridas,Plena Noite,Decrescente,Céu Claro,Dupla,Reta;Retorno Regulamentado,Não,1219396,Automóvel,FIAT/PALIO FIRE ECONOMY,2010,Condutor,Ileso,25,Masculino,1,0,0,0,-17.77696273,-50.89068035,SPRF-GO,DEL04-GO,UOP02-DEL04-GO,FIAT,PALIO FIRE ECONOMY,Sem Feridos,Centro-Oeste,19,Noite
690154,1534088,2025-05-09,sexta-feira,20:15:00,PA,10,17,DOM ELISEU,Não,Acesso irregular,1,Colisão transversal,Com Vítimas Feridas,Plena Noite,Crescente,Céu Claro,Simples,Reta;Retorno Regulamentado;Rotatória;Interseção de Vias,Sim,1223732,Motocicleta,HONDA/POP 110I ES,2025,Condutor,Lesões Graves,22,Masculino,0,0,1,0,-4.29303132,-47.55706284,SPRF-PA,DEL02-PA,UOP02-DEL02-PA,HONDA,POP 110I ES,Grave,Norte,20,Noite
671873,1516568,2025-04-06,domingo,00:30:00,RN,304,105,ACU,Sim,Condutor deixou de manter distância do veículo da frente,1,Colisão traseira,Com Vítimas Feridas,Plena Noite,Crescente,Céu Claro,Simples,Reta,Não,1210103,Motocicleta,,0,Condutor,Lesões Leves,37,Masculino,0,1,0,0,-5.58731446,-36.98324941,SPRF-RN,DEL04-RN,UOP01-DEL04-RN,,,Leve,Nordeste,0,Madrugada
661405,1491393,2025-02-14,sexta-feira,08:45:00,SC,101,121,ITAJAI,Sim,Reação tardia ou ineficiente do condutor,1,Queda de ocupante de veículo,Com Vítimas Feridas,Pleno dia,Crescente,Céu Claro,Dupla,Reta,Não,1189913,Motocicleta,HONDA/CBX 250 TWISTER,0,Condutor,Lesões Leves,23,Masculino,0,1,0,0,-26.92103178,-48.70856446,SPRF-SC,DEL04-SC,UOP04-DEL04-SC,HONDA,CBX 250 TWISTER,Leve,Sul,8,Manhã
668712,1509253,2025-03-21,sexta-feira,19:50:00,MG,381,646,SANTO ANTONIO DO AMPARO,Sim,Velocidade Incompatível,2,Colisão com objeto,Sem Vítimas,Plena Noite,Crescente,Céu Claro,Dupla,Curva,Não,1204061,Automóvel,FIAT/PALIO WK ADVEN FLEX,2005,Passageiro,Ileso,22,Masculino,1,0,0,0,-20.95419583,-44.88704681,SPRF-MG,DEL04-MG,UOP02-DEL04-MG,FIAT,PALIO WK ADVEN FLEX,Sem Feridos,Sudeste,19,Noite
662577,1494195,2025-01-12,domingo,03:30:00,PE,104,83,AGRESTINA,Sim,Transitar na contramão,1,Saída de leito carroçável,Com Vítimas Feridas,Amanhecer,Decrescente,Céu Claro,Simples,Reta,Não,1192177,Caminhonete,I/TOYOTA HILUX CD4X4 SRV,2007,Passageiro,Lesões Leves,40,Feminino,0,1,0,0,-8.422589,-35.963135,SPRF-PE,DEL02-PE,UOP01-DEL02-PE,I,TOYOTA HILUX CD4X4 SRV,Leve,Nordeste,3,Madrugada
699815,1557150,2025-06-22,domingo,17:15:00,PI,343,347,TERESINA,Sim,Reação tardia ou ineficiente do condutor,1,Colisão traseira,Com Vítimas Feridas,Pleno dia,Decrescente,Céu Claro,Dupla,Reta;Ponte,Sim,1242550,Motocicleta,HONDA/CG 160 FAN,2024,Passageiro,Lesões Leves,23,Feminino,0,1,0,0,-5.115282,-42.779213,SPRF-PI,DEL01-PI,UOP01-DEL01-PI,HONDA,CG 160 FAN,Leve,Nordeste,17,Tarde
673908,1521415,2025-04-15,terça-feira,15:44:00,RO,364,711,PORTO VELHO,Sim,Manobra de mudança de faixa,1,Colisão lateral mesmo sentido,Com Vítimas Feridas,Pleno dia,Decrescente,Céu Claro,Dupla,Reta,Sim,1214052,Motocicleta,HONDA/CG 150 TITAN ESD,2013,Condutor,Lesões Leves,52,Masculino,0,1,0,0,-8.78308465,-63.86367559,SPRF-RO,DEL01-RO,UOP01-DEL01-RO,HONDA,CG 150 TITAN ESD,Leve,Norte,15,Tarde
665456,1501280,2025-03-06,quinta-feira,08:45:00,PR,277,78,CURITIBA,Não,Ausência de reação do condutor,3,Queda de ocupante de veículo,Com Vítimas Feridas,Pleno dia,Crescente,Sol,Dupla,Reta,Sim,1197771,Automóvel,I/RENAULT CLIO EXP1016VH,2013,Condutor,Ileso,31,Masculino,1,0,0,0,-25.477932,-49.203206,SPRF-PR,DEL01-PR,UOP07-DEL01-PR,I,RENAULT CLIO EXP1016VH,Sem Feridos,Sul,8,Manhã
692386,1539405,2025-05-19,segunda-feira,17:00:00,BA,242,796,BARREIRAS,Não,Velocidade Incompatível,1,Colisão transversal,Com Vítimas Feridas,Anoitecer,Decrescente,Céu Claro,Simples,Reta,Não,1228086,Micro-ônibus,I/FORD TRANSIT 460 B,2023,Condutor,Ileso,56,Masculino,1,0,0,0,-12.164813,-44.875263,SPRF-BA,DEL10-BA,UOP01-DEL10-BA,I,FORD TRANSIT 460 B,Sem Feridos,Nordeste,17,Tarde
689076,1531457,2025-05-04,domingo,15:00:00,PR,376,634,SAO JOSE DOS PINHAIS,Não,Acessar a via sem observar a presença dos outros veículos,1,Colisão traseira,Com Vítimas Feridas,Pleno dia,Crescente,Céu Claro,Dupla,Reta,Não,,,,,Testemunha,Não Informado,,Não Informado,0,0,0,0,-25.72207777,-49.1365641,SPRF-PR,DEL01-PR,UOP04-DEL01-PR,,,Sem Feridos,Sul,15,Tarde
698007,1552699,2025-06-13,sexta-feira,19:00:00,RJ,465,19,NOVA IGUACU,Sim,Transitar no Acostamento,1,Colisão transversal,Com Vítimas Feridas,Plena Noite,Decrescente,Céu Claro,Simples,Reta,Sim,1238912,Motocicleta,YAMAHA/YS150 FAZER SED,2024,Passageiro,Lesões Leves,54,Feminino,0,1,0,0,-22.84051446,-43.60964712,SPRF-RJ,DEL06-RJ,UOP02-DEL06-RJ,YAMAHA,YS150 FAZER SED,Leve,Sudeste,19,Noite
690205,1534280,2025-05-10,sábado,05:00:00,SP,116,207,GUARULHOS,Não,Reação tardia ou ineficiente do condutor,1,Colisão com objeto,Com Vítimas Feridas,Amanhecer,Decrescente,Céu Claro,Múltipla,Reta,Sim,1223879,Automóvel,VW/FOX 1.0,2006,Condutor,Lesões Leves,50,Masculino,0,1,0,0,-23.42103825,-46.38908386,SPRF-SP,DEL01-SP,UOP01-DEL01-SP,VW,FOX 1.0,Leve,Sudeste,5,Manhã
656134,1477774,2025-01-19,domingo,19:55:00,MG,262,"22,1",REDUTO,Sim,Problema com o freio,1,Saída de leito carroçável,Com Vítimas Fatais,Plena Noite,Crescente,Céu Claro,Simples,Curva;Declive,Não,1179776,Automóvel,FIAT/ARGO DRIVE 1.0,2024,Passageiro,Óbito,65,Feminino,0,0,0,1,-20.24575292,-41.92502101,SPRF-MG,DEL06-MG,UOP03-DEL06-MG,FIAT,ARGO DRIVE 1.0,Fatal,Sudeste,19,Noite
662987,1495122,2025-02-22,sábado,15:22:00,MA,10,316,ACAILANDIA,Sim,Transitar na contramão,2,Tombamento,Com Vítimas Fatais,Pleno dia,Decrescente,Céu Claro,Simples,Reta;Declive,Não,1192961,Motocicleta,HONDA/NXR160 BROS ESDD,2015,Passageiro,Óbito,48,Feminino,0,0,0,1,-4.974727,-47.517072,SPRF-MA,DEL04-MA,UOP03-DEL04-MA,HONDA,NXR160 BROS ESDD,Fatal,Nordeste,15,Tarde
686948,1526317,2025-04-23,quarta-feira,18:50:00,RS,116,334,BARRA DO RIBEIRO,Não,Ausência de reação do condutor,1,Saída de leito carroçável,Com Vítimas Feridas,Plena Noite,Crescente,Céu Claro,Dupla,Reta;Retorno Regulamentado,Não,1217654,Automóvel,CHEV/ONIX PLUS JOY BLACK,2021,Condutor,Lesões Leves,37,Masculino,0,1,0,0,-30.420832,-51.46523,SPRF-RS,DEL02-RS,UOP02-DEL02-RS,CHEV,ONIX PLUS JOY BLACK,Leve,Sul,18,Noite
697864,1552400,2025-06-13,sexta-feira,12:30:00,PA,316,64,CASTANHAL,Não,Condutor desrespeitou a iluminação vermelha do semáforo,1,Colisão transversal,Com Vítimas Feridas,Pleno dia,Crescente,Sol,Dupla,Interseção de Vias,Sim,1238658,Motocicleta,HONDA/POP 110I ES,2025,Condutor,Lesões Leves,23,Masculino,0,1,0,0,-1.296415,-47.918822,SPRF-PA,DEL01-PA,UOP01-DEL01-PA,HONDA,POP 110I ES,Leve,Norte,12,Tarde
689891,,2025-05-08,quinta-feira,19:45:00,GO,452,34,SANTA HELENA DE GOIAS,Não,Reação tardia ou ineficiente do condutor,1,Colisão lateral sentido oposto,Com Vítimas Fatais,Plena Noite,Crescente,Céu Claro,Simples,Aclive;Reta,Não,1223928,Semireboque,SR/RANDON TQ PP 03E,2018,,,,,,,,,-17.916027,-50.608648,SPRF-GO,DEL04-GO,UOP01-DEL04-GO,SR,RANDON TQ PP 03E,Sem Feridos,Centro-Oeste,19,Noite
654455,1473086,2025-01-11,sábado,13:30:00,SC,101,97,BALNEARIO PICARRAS,Sim,Avarias e/ou desgaste excessivo no pneu,1,Tombamento,Com Vítimas Feridas,Pleno dia,Crescente,Nublado,Dupla,Reta,Não,1176635,Motoneta,HONDA/C100 BIZ,2001,Condutor,Lesões Leves,28,Masculino,0,1,0,0,-26.72823703,-48.70224928,SPRF-SC,DEL03-SC,UOP02-DEL03-SC,HONDA,C100 BIZ,Leve,Sul,13,Tarde
690843,1535757,2025-05-12,segunda-feira,14:25:00,SP,116,"148,6",SAO JOSE DOS CAMPOS,Sim,Condutor deixou de manter distância do veículo da frente,1,Colisão traseira,Com Vítimas Fatais,Pleno dia,Decrescente,Céu Claro,Múltipla,Reta,Sim,1225086,Motocicleta,HONDA/CG 150 TITAN KS,2008,Condutor,Óbito,,Masculino,0,0,0,1,-23.19605432,-45.87268202,SPRF-SP,DEL02-SP,UOP01-DEL02-SP,HONDA,CG 150 TITAN KS,Fatal,Sudeste,14,Tarde
659602,1489276,2025-02-06,quinta-feira,10:40:00,PE,424,"89,3",GARANHUNS,Sim,Demais falhas mecânicas ou elétricas,2,Colisão lateral sentido oposto,Com Vítimas Feridas,Pleno dia,Crescente,Nublado,Simples,Curva;Declive,Sim,1186474,Caminhonete,MMC/L200 TRITON GLX D,2017,Passageiro,Lesões Leves,41,Masculino,0,1,0,0,-8.89138375,-36.50571483,SPRF-PE,DEL03-PE,UOP01-DEL03-PE,MMC,L200 TRITON GLX D,Leve,Nordeste,10,Manhã
694726,1545845,2025-05-30,sexta-feira,18:34:00,RS,290,578,ALEGRETE,Não,Reação tardia ou ineficiente do condutor,1,Colisão lateral mesmo sentido,Com Vítimas Feridas,Plena Noite,Crescente,Nublado,Simples,Curva,Não,1232653,Automóvel,VW/PARATI 1.8,1999,Passageiro,Ileso,3,Feminino,1,0,0,0,-29.809978,-55.764563,SPRF-RS,DEL13-RS,UOP02-DEL13-RS,VW,PARATI 1.8,Sem Feridos,Sul,18,Noite
688016,1528918,2025-04-29,terça-feira,08:26:00,ES,101,"268,6",SERRA,Não,Condutor deixou de manter distância do veículo da frente,1,Colisão lateral mesmo sentido,Com Vítimas Feridas,Pleno dia,Crescente,Céu Claro,Dupla,Reta,Sim,1219647,Motocicleta,,0,Condutor,Lesões Graves,35,Masculino,0,0,1,0,-20.0507392,-40.3832832,SPRF-ES,DEL02-ES,UOP01-DEL02-ES,,,Grave,Sudeste,8,Manhã
696838,1549888,2025-06-08,domingo,19:05:00,RJ,101,272,RIO BONITO,Sim,Condutor deixou de manter distância do veículo da frente,1,Colisão traseira,Com Vítimas Feridas,Plena Noite,Crescente,Nublado,Dupla,Reta,Sim,1236591,Motocicleta,HONDA/CG 160 FAN,2022,Passageiro,Lesões Leves,27,Masculino,0,1,0,0,-22.72853214,-42.69802094,SPRF-RJ,DEL02-RJ,UOP03-DEL02-RJ,HONDA,CG 160 FAN,Leve,Sudeste,19,Noite
697817,1552233,2025-05-13,terça-feira,21:15:00,MG,251,"441,7",GRAO MOGOL,Não,Velocidade Incompatível,5,Colisão frontal,Com Vítimas Fatais,Plena Noite,Crescente,Garoa/Chuvisco,Simples,Curva,Não,1238533,Micro-ônibus,CITROEN/JUMPER M33M 2.3,2014,Passageiro,Óbito,40,Masculino,0,0,0,1,-16.4074212,-43.2280038,SPRF-MG,DEL12-MG,UOP01-DEL12-MG,CITROEN,JUMPER M33M 2.3,Fatal,Sudeste,21,Noite
658086,1482898,2025-01-29,quarta-feira,18:15:00,RS,158,322,SANTA MARIA,Não,Ausência de reação do condutor,2,Queda de ocupante de veículo,Com Vítimas Feridas,Pleno dia,Crescente,Céu Claro,Simples,Interseção de Vias;Rotatória,Sim,1183570,Automóvel,IMP/TOYOTA COROLLA XLI,2024,Passageiro,Ileso,10,Feminino,1,0,0,0,-29.69506153,-53.77481461,SPRF-RS,DEL09-RS,UOP01-DEL09-RS,IMP,TOYOTA COROLLA XLI,Sem Feridos,Sul,18,Noite
694726,1545845,2025-05-30,sexta-feira,18:34:00,RS,290,578,ALEGRETE,Não,Condutor deixou de manter distância do veículo da frente,2,Colisão frontal,Com Vítimas Feridas,Plena Noite,Crescente,Nublado,Simples,Curva,Não,1232653,Automóvel,VW/PARATI 1.8,1999,Passageiro,Ileso,3,Feminino,1,0,0,0,-29.809978,-55.764563,SPRF-RS,DEL13-RS,UOP02-DEL13-RS,VW,PARATI 1.8,Sem Feridos,Sul,18,Noite
658223,1483234,2025-01-30,quinta-feira,13:45:00,SC,116,"6,9",MAFRA,Sim,Acesso irregular,1,Colisão transversal,Com Vítimas Feridas,Pleno dia,Crescente,Céu Claro,Simples,Reta,Sim,1183832,Caminhão,DAF/CF FAC 310,2023,Condutor,Ileso,47,Masculino,1,0,0,0,-26.15196176,-49.83102416,SPRF-SC,DEL06-SC,UOP01-DEL06-SC,DAF,CF FAC 310,Sem Feridos,Sul,13,Tarde
661208,1491028,2025-02-14,sexta-feira,00:10:00,MG,262,883,CAMPO FLORIDO,Sim,Ausência de reação do condutor,2,Tombamento,Com Vítimas Feridas,Plena Noite,Decrescente,Céu Claro,Dupla,Curva;Declive,Não,1189589,Caminhão-trator,VOLVO/FH 400 4X2T,2011,Condutor,Lesões Leves,46,Masculino,0,1,0,0,-19.77688698,-48.55507001,SPRF-MG,DEL13-MG,UOP02-DEL13-MG,VOLVO,FH 400 4X2T,Leve,Sudeste,0,Madrugada
667854,1507081,2025-03-17,segunda-feira,10:52:00,RJ,116,180,NOVA IGUACU,Sim,Mal súbito do condutor,1,Colisão lateral mesmo sentido,Sem Vítimas,Pleno dia,Crescente,Chuva,Múltipla,Reta,Sim,1202248,Automóvel,FORD/KA SE 1.0 HA C,2020,Condutor,Ileso,56,Masculino,1,0,0,0,-22.76355471,-43.41915563,SPRF-RJ,DEL06-RJ,UOP01-DEL06-RJ,FORD,KA SE 1.0 HA C,Sem Feridos,Sudeste,10,Manhã
692959,1540839,2025-05-22,quinta-feira,13:51:00,PE,101,"41,8",IGARASSU,Sim,Retorno proibido,1,Colisão lateral mesmo sentido,Sem Vítimas,Pleno dia,Crescente,Céu Claro,Múltipla,Aclive,Não,1229199,Caminhonete,FIAT/FIOR MODIFICAR AB1,2023,Condutor,Ileso,35,Masculino,1,0,0,0,-7.8382014,-34.9121607,SPRF-PE,DEL01-PE,UOP02-DEL01-PE,FIAT,FIOR MODIFICAR AB1,Sem Feridos,Nordeste,13,Tarde
694192,1543666,2025-05-28,quarta-feira,07:10:00,PR,277,83,CURITIBA,Não,Trafegar com motocicleta (ou similar) entre as faixas,3,Queda de ocupante de veículo,Com Vítimas Feridas,Pleno dia,Crescente,Garoa/Chuvisco,Dupla,Reta,Sim,1231543,Automóvel,FIAT/UNO SPORTING 1.4,2013,Condutor,Ileso,28,Feminino,1,0,0,0,-25.452348,-49.226458,SPRF-PR,DEL01-PR,UOP03-DEL01-PR,FIAT,UNO SPORTING 1.4,Sem Feridos,Sul,7,Manhã
691025,1536181,2025-05-13,terça-feira,14:00:00,ES,101,"267,5",SERRA,Sim,Manobra de mudança de faixa,1,Saída de leito carroçável,Com Vítimas Feridas,Pleno dia,Decrescente,Sol,Múltipla,Reta,Sim,1225442,Automóvel,HONDA/CIVIC LXR,2013,Passageiro,Lesões Leves,32,Masculino,0,1,0,0,-20.2049518,-40.26888,SPRF-ES,DEL02-ES,UOP01-DEL02-ES,HONDA,CIVIC LXR,Leve,Sudeste,14,Tarde
656783,,2025-01-23,quinta-feira,06:45:00,GO,364,259,JATAI,Não,Chuva,1,Saída de leito carroçável,Com Vítimas Feridas,Amanhecer,Crescente,Chuva,Simples,Curva,Não,1181119,Semireboque,SR/RANDON SR CA,2021,,,,,,,,,-17.673866,-52.216778,SPRF-GO,DEL05-GO,UOP01-DEL05-GO,SR,RANDON SR CA,Sem Feridos,Centro-Oeste,6,Manhã
696890,1551026,2025-06-08,domingo,21:10:00,MT,163,782,SORRISO,Não,Ausência de reação do condutor,4,Capotamento,Com Vítimas Fatais,Plena Noite,Crescente,Céu Claro,Simples,Reta,Não,1237561,Caminhonete,FIAT/STRADA VOLCANO 13CD,2022,Passageiro,Ileso,9,Feminino,1,0,0,0,-12.315784,-55.580256,SPRF-MT,DEL06-MT,UOP02-DEL06-MT,FIAT,STRADA VOLCANO 13CD,Sem Feridos,Centro-Oeste,21,Noite
692978,1540965,2025-05-22,quinta-feira,16:30:00,MG,381,"500,5",BETIM,Sim,Trafegar com motocicleta (ou similar) entre as faixas,2,Tombamento,Com Vítimas Feridas,Pleno dia,Decrescente,Céu Claro,Múltipla,Reta;Aclive,Não,1229307,Motocicleta,HONDA/CG 160 CARGO,2024,Condutor,Lesões Leves,19,Masculino,0,1,0,0,-20.0015604,-44.2117852,SPRF-MG,DEL01-MG,UOP03-DEL01-MG,HONDA,CG 160 CARGO,Leve,Sudeste,16,Tarde
693016,1540937,2025-05-22,quinta-feira,15:58:00,RJ,40,115,DUQUE DE CAXIAS,Sim,Mal súbito do condutor,2,Tombamento,Com Vítimas Feridas,Pleno dia,Decrescente,Céu Claro,Dupla,Reta,Sim,1229280,Motocicleta,YAMAHA/FZ15 FAZER ABS,2023,Condutor,Lesões Graves,26,Masculino,0,0,1,0,-22.727012,-43.28901,SPRF-RJ,DEL01-RJ,UOP02-DEL01-RJ,YAMAHA,FZ15 FAZER ABS,Grave,Sudeste,15,Tarde
696830,1550104,2025-06-08,domingo,18:45:00,RS,290,137,ELDORADO DO SUL,Não,Ultrapassagem Indevida,1,Colisão frontal,Com Vítimas Feridas,Plena Noite,Decrescente,Céu Claro,Simples,Reta,Não,1236754,Automóvel,CITROEN/AIRCROSS LIVE AT,2018,Passageiro,Ileso,73,Feminino,1,0,0,0,-30.07301679,-51.58649039,SPRF-RS,DEL02-RS,UOP01-DEL02-RS,CITROEN,AIRCROSS LIVE AT,Sem Feridos,Sul,18,Noite
654666,1473765,2025-01-12,domingo,17:10:00,SC,282,"26,4",SANTO AMARO DA IMPERATRIZ,Não,Acessar a via sem observar a presença dos outros veículos,2,Queda de ocupante de veículo,Com Vítimas Feridas,Pleno dia,Decrescente,Nublado,Simples,Reta;Interseção de Vias;Retorno Regulamentado,Sim,1177056,Automóvel,HONDA/CIVIC LXS,2012,Condutor,Ileso,48,Feminino,1,0,0,0,-27.67522418,-48.76841784,SPRF-SC,DEL01-SC,UOP03-DEL01-SC,HONDA,CIVIC LXS,Sem Feridos,Sul,17,Tarde
695518,1546774,2025-06-03,terça-feira,08:20:00,MG,40,"466,4",SETE LAGOAS,Sim,Frear bruscamente,1,Queda de ocupante de veículo,Com Vítimas Feridas,Pleno dia,Decrescente,Céu Claro,Dupla,Reta,Sim,1234028,Motocicleta,HONDA/CG 160 TITAN,2018,Condutor,Lesões Leves,49,Masculino,0,1,0,0,-19.44588,-44.32148,SPRF-MG,DEL02-MG,UOP01-DEL02-MG,HONDA,CG 160 TITAN,Leve,Sudeste,8,Manhã
691574,1537480,2025-05-16,sexta-feira,07:27:00,MG,116,"415,9",GOVERNADOR VALADARES,Sim,Transitar na contramão,2,Tombamento,Com Vítimas Feridas,Pleno dia,Crescente,Céu Claro,Simples,Reta;Interseção de Vias,Sim,1226511,Automóvel,VW/GOL 1.6L MB5,2021,Condutor,Ileso,31,Masculino,1,0,0,0,-18.89579105,-41.94796801,SPRF-MG,DEL06-MG,UOP01-DEL06-MG,VW,GOL 1.6L MB5,Sem Feridos,Sudeste,7,Manhã
692646,1540005,2025-05-20,terça-feira,22:00:00,TO,10,"454,3",PALMAS,Não,Velocidade Incompatível,3,Queda de ocupante de veículo,Com Vítimas Fatais,Plena Noite,Crescente,Céu Claro,Múltipla,Reta,Sim,1228573,Motocicleta,HONDA/CG 160 FAN,2024,Condutor,Óbito,17,Masculino,0,0,0,1,-10.31314,-48.29718,SPRF-TO,DEL01-TO,UOP03-DEL01-TO,HONDA,CG 160 FAN,Fatal,Norte,22,Noite
700348,,2025-06-25,quarta-feira,02:10:00,TO,230,82,CACHOEIRINHA,Sim,Ausência de reação do condutor,1,Saída de leito carroçável,Com Vítimas Fatais,Plena Noite,Decrescente,Céu Claro,Simples,Reta;Aclive,Não,1243641,Semireboque,REB/RODOVIARIA SR FC CG,1994,,,,,,,,,-6.100837,-47.903804,SPRF-TO,DEL02-TO,UOP03-DEL02-TO,REB,RODOVIARIA SR FC CG,Sem Feridos,Norte,2,Madrugada
657904,1482473,2025-01-28,terça-feira,15:00:00,ES,101,392,RIO NOVO DO SUL,Sim,Acessar a via sem observar a presença dos outros veículos,1,Colisão transversal,Com Vítimas Feridas,Pleno dia,Crescente,Céu Claro,Simples,Interseção de Vias,Não,1183213,Automóvel,GM/CORSA WIND,1996,Passageiro,Ileso,19,Feminino,1,0,0,0,-20.86675192,-40.90785027,SPRF-ES,DEL03-ES,UOP02-DEL03-ES,GM,CORSA WIND,Sem Feridos,Sudeste,15,Tarde
658395,1483986,2025-01-31,sexta-feira,11:17:00,MS,262,"320,9",CAMPO GRANDE,Sim,Acessar a via sem observar a presença dos outros veículos,2,Capotamento,Com Vítimas Feridas,Pleno dia,Crescente,Céu Claro,Simples,Reta,Não,1184183,Caminhonete,FIAT/STRADA FREEDOM 13CD,2021,Passageiro,Ileso,34,Masculino,1,0,0,0,-20.4698075,-54.48459148,SPRF-MS,DEL01-MS,UOP01-DEL01-MS,FIAT,STRADA FREEDOM 13CD,Sem Feridos,Centro-Oeste,11,Manhã
672201,1517439,2025-04-07,segunda-feira,14:30:00,SC,282,"249,8",VARGEM,Sim,Ultrapassagem Indevida,2,Saída de leito carroçável,Com Vítimas Feridas,Pleno dia,Decrescente,Nublado,Simples,Reta,Não,1210654,Automóvel,RENAULT/SANDERO EXPR 10,2018,Condutor,Lesões Leves,64,Masculino,0,1,0,0,-27.52497646,-50.88307813,SPRF-SC,DEL05-SC,UOP02-DEL05-SC,RENAULT,SANDERO EXPR 10,Leve,Sul,14,Tarde
673467,1520420,2025-04-13,domingo,17:11:00,PI,316,19,TERESINA,Sim,Avarias e/ou desgaste excessivo no pneu,1,Saída de leito carroçável,Com Vítimas Feridas,Pleno dia,Decrescente,Céu Claro,Dupla,Reta,Não,1213262,Motocicleta,,0,Condutor,Lesões Graves,46,Masculino,0,0,1,0,-5.267893,-42.7275505,SPRF-PI,DEL01-PI,UOP02-DEL01-PI,,,Grave,Nordeste,17,Tarde
673218,1519858,2025-04-12,sábado,17:00:00,SP,101,46,UBATUBA,Não,Conversão proibida,1,Colisão transversal,Com Vítimas Feridas,Pleno dia,Decrescente,Céu Claro,Simples,Reta,Sim,1212799,Automóvel,FIAT/UNO WAY 1.0,2012,Passageiro,Ileso,45,Feminino,1,0,0,0,-23.42661479,-45.07825429,SPRF-SP,DEL06-SP,UOP01-DEL06-SP,FIAT,UNO WAY 1.0,Sem Feridos,Sudeste,17,Tarde
689891,,2025-05-08,quinta-feira,19:45:00,GO,452,34,SANTA HELENA DE GOIAS,Sim,Ultrapassagem Indevida,2,Colisão com objeto,Com Vítimas Fatais,Plena Noite,Crescente,Céu Claro,Simples,Aclive;Reta,Não,1223930,Semireboque,SR/FACCHINI SRF 2CB,2021,,,,,,,,,-17.916027,-50.608648,SPRF-GO,DEL04-GO,UOP01-DEL04-GO,SR,FACCHINI SRF 2CB,Sem Feridos,Centro-Oeste,19,Noite
658883,1485086,2025-02-02,domingo,20:00:00,TO,153,644,DUERE,Sim,Transitar na contramão,8,Derramamento de carga,Com Vítimas Fatais,Plena Noite,Crescente,Chuva,Simples,Reta,Não,1185156,Automóvel,HONDA/CIVIC EXS,2012,Condutor,Óbito,33,Masculino,0,0,0,1,-11.48307595,-49.00099215,SPRF-TO,DEL01-TO,UOP02-DEL01-TO,HONDA,CIVIC EXS,Fatal,Norte,20,Noite
691332,1536928,2025-05-14,quarta-feira,20:44:00,MA,222,"190,5",ITAPECURU MIRIM,Não,Reação tardia ou ineficiente do condutor,1,Colisão frontal,Com Vítimas Fatais,Plena Noite,Decrescente,Céu Claro,Simples,Curva,Não,1226036,Automóvel,CHEV/ONIX 10MT HB,2023,Condutor,Ileso,55,Masculino,1,0,0,0,-3.48388,-44.247095,SPRF-MA,DEL01-MA,UOP02-DEL01-MA,CHEV,ONIX 10MT HB,Sem Feridos,Nordeste,20,Noite
699305,1556098,2025-06-20,sexta-feira,05:40:00,MT,70,530,VARZEA GRANDE,Não,Neblina,3,Tombamento,Com Vítimas Fatais,Amanhecer,Crescente,Nevoeiro/Neblina,Simples,Reta,Não,1241685,Caminhonete,CHEVROLET/S10 WT DD4A,2024,Condutor,Ileso,28,Masculino,1,0,0,0,-15.66037,-56.220718,SPRF-MT,DEL01-MT,UOP02-DEL01-MT,CHEVROLET,S10 WT DD4A,Sem Feridos,Centro-Oeste,5,Manhã
659004,1485417,2025-02-03,segunda-feira,08:00:00,MG,381,"456,4",BELO HORIZONTE,Sim,Manobra de mudança de faixa,2,Queda de ocupante de veículo,Com Vítimas Feridas,Pleno dia,Decrescente,Sol,Dupla,Reta,Sim,1185415,Motocicleta,DAFRA/RIVA 150,2012,Passageiro,Lesões Leves,29,Masculino,0,1,0,0,-19.85862954,-43.91292495,SPRF-MG,DEL01-MG,UOP01-DEL01-MG,DAFRA,RIVA 150,Leve,Sudeste,8,Manhã
654883,1474337,2025-01-13,segunda-feira,15:30:00,MG,381,"484,5",BETIM,Sim,Acessar a via sem observar a presença dos outros veículos,1,Colisão lateral mesmo sentido,Sem Vítimas,Pleno dia,Crescente,Céu Claro,Simples,Reta,Sim,1177450,Caminhonete,CHEVROLET/S10 LS DD4,2023,Passageiro,Ileso,42,Masculino,1,0,0,0,-19.95531717,-44.11722196,SPRF-MG,DEL01-MG,UOP03-DEL01-MG,CHEVROLET,S10 LS DD4,Sem Feridos,Sudeste,15,Tarde
655764,1478026,2025-01-17,sexta-feira,20:51:00,MA,230,131,PASTOS BONS,Sim,Ausência de reação do condutor,1,Saída de leito carroçável,Com Vítimas Fatais,Plena Noite,Crescente,Céu Claro,Simples,Curva;Declive,Não,1179137,Caminhonete,I/TOYOTA HILUX CDSRVA4FD,2017,Passageiro,Lesões Graves,60,Masculino,0,0,1,0,-6.58135488,-43.99116199,SPRF-MA,DEL05-MA,UOP01-DEL05-MA,I,TOYOTA HILUX CDSRVA4FD,Grave,Nordeste,20,Noite
700395,1558568,2025-06-25,quarta-feira,08:30:00,RO,364,693,CANDEIAS DO JAMARI,Sim,Ausência de reação do condutor,1,Colisão lateral mesmo sentido,Sem Vítimas,Pleno dia,Crescente,Céu Claro,Simples,Reta,Não,1243687,Micro-ônibus,I/FIAT DUCATO ENGESIGMIC,2019,Condutor,Ileso,47,Masculino,1,0,0,0,-8.79782256,-63.7116158,SPRF-RO,DEL01-RO,UOP01-DEL01-RO,I,FIAT DUCATO ENGESIGMIC,Sem Feridos,Norte,8,Manhã
695152,,2025-06-01,domingo,15:00:00,PR,277,118,CAMPO LARGO,Sim,Demais falhas mecânicas ou elétricas,1,Incêndio,Sem Vítimas,Pleno dia,Crescente,Céu Claro,Dupla,Curva,Sim,1233431,Semireboque,SR/GUERRA AG GR,2011,,,,,,,,,-25.436661,-49.444217,SPRF-PR,DEL03-PR,UOP03-DEL03-PR,SR,GUERRA AG GR,Sem Feridos,Sul,15,Tarde
687957,1528725,2025-04-28,segunda-feira,21:15:00,MG,251,"464,5",GRAO MOGOL,Sim,Velocidade Incompatível,1,Colisão lateral sentido oposto,Com Vítimas Feridas,Plena Noite,Decrescente,Chuva,Simples,Curva;Declive,Não,1219485,Caminhonete,I/TOYOTA HILUX MAIA AMB1,2023,Passageiro,Lesões Leves,30,Masculino,0,1,0,0,-16.439343,-43.39401,SPRF-MG,DEL12-MG,UOP01-DEL12-MG,I,TOYOTA HILUX MAIA AMB1,Leve,Sudeste,21,Noite
697935,1552771,2025-06-13,sexta-feira,14:40:00,MG,116,"207,5",CATUJI,Sim,Reação tardia ou ineficiente do condutor,1,Colisão com objeto,Com Vítimas Feridas,Pleno dia,Crescente,Céu Claro,Simples,Reta,Sim,1238969,Utilitário,I/SUZUKI JIMNY SIE 4EXPA,2024,Passageiro,Lesões Graves,52,Feminino,0,0,1,0,-17.30614761,-41.51726961,SPRF-MG,DEL11-MG,UOP01-DEL11-MG,I,SUZUKI JIMNY SIE 4EXPA,Grave,Sudeste,14,Tarde
693048,1541015,2025-05-22,quinta-feira,22:00:00,SC,470,"133,9",RIO DO SUL,Não,Chuva,2,Saída de leito carroçável,Com Vítimas Feridas,Plena Noite,Decrescente,Garoa/Chuvisco,Simples,Reta;Declive,Não,1229356,Automóvel,I/VW SPACEFOX,2009,Condutor,Ileso,31,Masculino,1,0,0,0,-27.1732853,-49.5870302,SPRF-SC,DEL04-SC,UOP02-DEL04-SC,I,VW SPACEFOX,Sem Feridos,Sul,22,Noite
657657,1482920,2025-01-26,domingo,21:30:00,BA,242,432,SEABRA,Sim,Ultrapassagem Indevida,1,Colisão frontal,Com Vítimas Feridas,Plena Noite,Crescente,Céu Claro,Simples,Reta,Não,1182705,Automóvel,GM/MERIVA MAXX,2011,Passageiro,Lesões Leves,24,Masculino,0,1,0,0,-12.39205239,-41.91496307,SPRF-BA,DEL06-BA,UOP01-DEL06-BA,GM,MERIVA MAXX,Leve,Nordeste,21,Noite
657741,1481992,2025-01-27,segunda-feira,16:10:00,RO,364,705,PORTO VELHO,Não,Reação tardia ou ineficiente do condutor,3,Colisão lateral mesmo sentido,Com Vítimas Feridas,Pleno dia,Crescente,Céu Claro,Dupla,Retorno Regulamentado;Reta,Sim,1182863,Caminhão-trator,SCANIA/R 440 A6X4,2013,Condutor,Ileso,43,Masculino,1,0,0,0,-8.80030041,-63.81926358,SPRF-RO,DEL01-RO,UOP01-DEL01-RO,SCANIA,R 440 A6X4,Sem Feridos,Norte,16,Tarde
692900,1540691,2025-05-22,quinta-feira,08:35:00,RS,472,"141,2",TRES DE MAIO,Sim,Ausência de reação do condutor,2,Colisão com objeto,Com Vítimas Feridas,Pleno dia,Decrescente,Nublado,Simples,Curva,Não,1229075,Caminhão,M.BENZ/912,1989,Condutor,Lesões Graves,67,Masculino,0,0,1,0,-27.77543,-54.32754,SPRF-RS,DEL10-RS,UOP01-DEL10-RS,M.BENZ,912,Grave,Sul,8,Manhã
691028,1536236,2025-05-13,terça-feira,13:37:00,PI,343,"13,6",PARNAIBA,Não,Ausência de reação do condutor,2,Colisão com objeto,Com Vítimas Feridas,Pleno dia,Decrescente,Céu Claro,Dupla,Reta;Interseção de Vias,Sim,1225490,Automóvel,CHEVROLET/ONIX 1.4MT LTZ,2019,Condutor,Lesões Leves,47,Feminino,0,1,0,0,-2.92511621,-41.75361425,SPRF-PI,DEL05-PI,UOP01-DEL05-PI,CHEVROLET,ONIX 1.4MT LTZ,Leve,Nordeste,13,Tarde
695464,1546695,2025-06-02,segunda-feira,22:25:00,MG,262,36,MANHUACU,Não,Velocidade Incompatível,1,Atropelamento de Pedestre,Com Vítimas Feridas,Plena Noite,Crescente,Céu Claro,Simples,Reta,Sim,,,,,Pedestre,Lesões Leves,18,Feminino,0,1,0,0,-20.25872402,-42.0128975,SPRF-MG,DEL06-MG,UOP03-DEL06-MG,,,Leve,Sudeste,22,Noite
687817,1528469,2025-04-28,segunda-feira,08:45:00,SC,101,"212,2",PALHOCA,Não,Objeto estático sobre o leito carroçável,2,Engavetamento,Com Vítimas Feridas,Pleno dia,Crescente,Céu Claro,Múltipla,Reta,Sim,1219257,Caminhão,M.BENZ/915C,2011,Condutor,Ileso,51,Masculino,1,0,0,0,-27.63162,-48.66078,SPRF-SC,DEL01-SC,UOP02-DEL01-SC,M.BENZ,915C,Sem Feridos,Sul,8,Manhã
659750,1487285,2025-02-07,sexta-feira,04:50:00,SC,280,"199,8",MAFRA,Sim,Condutor Dormindo,1,Colisão com objeto,Com Vítimas Feridas,Plena Noite,Decrescente,Ignorado,Simples,Reta,Não,1186733,Automóvel,HYUNDAI/HB20 10M SENSE,2024,Condutor,Lesões Leves,57,Masculino,0,1,0,0,-26.17454276,-50.07167101,SPRF-SC,DEL06-SC,UOP01-DEL06-SC,HYUNDAI,HB20 10M SENSE,Leve,Sul,4,Madrugada
688068,1529013,2025-04-29,terça-feira,14:20:00,MG,262,363,JUATUBA,Sim,Manobra de mudança de faixa,2,Tombamento,Com Vítimas Feridas,Pleno dia,Decrescente,Céu Claro,Dupla,Reta,Sim,1219737,Automóvel,VW/GOL 1000I,1995,Condutor,Ileso,73,Masculino,1,0,0,0,-19.97198175,-44.29779749,SPRF-MG,DEL01-MG,UOP03-DEL01-MG,VW,GOL 1000I,Sem Feridos,Sudeste,14,Tarde
672894,1519253,2025-04-11,sexta-feira,08:15:00,PR,376,"174,6",MARINGA,Não,Demais Fenômenos da natureza,1,Colisão traseira,Com Vítimas Feridas,Pleno dia,Crescente,Céu Claro,Dupla,Interseção de Vias;Reta,Sim,1212276,Automóvel,VW/VIRTUS HL AC,2025,Condutor,Ileso,54,Masculino,1,0,0,0,-23.41591763,-51.95427415,SPRF-PR,DEL09-PR,UOP01-DEL09-PR,VW,VIRTUS HL AC,Sem Feridos,Sul,8,Manhã
664206,1498098,2025-02-28,sexta-feira,10:20:00,PE,232,126,CARUARU,Sim,Condutor Dormindo,1,Capotamento,Com Vítimas Feridas,Pleno dia,Decrescente,Céu Claro,Dupla,Curva;Aclive,Não,1195328,Caminhonete,VW/SAVEIRO CS RB MF,2023,Condutor,Lesões Leves,24,Masculino,0,1,0,0,-8.303977,-35.927016,SPRF-PE,DEL02-PE,UOP01-DEL02-PE,VW,SAVEIRO CS RB MF,Leve,Nordeste,10,Manhã
685663,1522789,2025-04-18,sexta-feira,07:28:00,SC,101,19,JOINVILLE,Sim,Reação tardia ou ineficiente do condutor,1,Colisão traseira,Com Vítimas Feridas,Pleno dia,Crescente,Céu Claro,Dupla,Reta;Aclive,Não,1215092,Camioneta,RENAULT/DUSTER 16 E 4X2,2012,Passageiro,Lesões Leves,11,Feminino,0,1,0,0,-26.1342774,-48.8970721,SPRF-SC,DEL03-SC,UOP01-DEL03-SC,RENAULT,DUSTER 16 E 4X2,Leve,Sul,7,Manhã
686463,1525141,2025-04-21,segunda-feira,13:15:00,PB,230,"288,4",SANTA LUZIA,Não,Problema com o freio,1,Colisão traseira,Com Vítimas Feridas,Pleno dia,Crescente,Céu Claro,Simples,Reta,Sim,,,,,Testemunha,Não Informado,,Não Informado,0,0,0,0,-6.874301,-36.908346,SPRF-PB,DEL03-PB,UOP01-DEL03-PB,,,Sem Feridos,Nordeste,13,Tarde
699216,1555798,2025-06-19,quinta-feira,18:40:00,ES,259,52,COLATINA,Não,Demais falhas mecânicas ou elétricas,2,Colisão traseira,Com Vítimas Feridas,Plena Noite,Crescente,Céu Claro,Simples,Aclive,Não,1241451,Caminhonete,,0,Condutor,Lesões Graves,56,Masculino,0,0,1,0,-19.5020411,-40.6241007,SPRF-ES,DEL02-ES,UOP01-DEL02-ES,,,Grave,Sudeste,18,Noite
659378,1486388,2025-02-05,quarta-feira,08:30:00,PR,277,"1,2",PARANAGUA,Não,Velocidade Incompatível,2,Tombamento,Com Vítimas Feridas,Pleno dia,Crescente,Nublado,Dupla,Reta,Sim,1186086,Motocicleta,HONDA/CG 160 FAN,2018,Condutor,Lesões Graves,25,Masculino,0,0,1,0,-25.55258309,-48.55368555,SPRF-PR,DEL01-PR,UOP05-DEL01-PR,HONDA,CG 160 FAN,Grave,Sul,8,Manhã
694222,,2025-05-28,quarta-feira,06:25:00,RS,392,"273,3",SAO SEPE,Sim,Problema com o freio,1,Tombamento,Com Vítimas Feridas,Amanhecer,Decrescente,Chuva,Simples,Curva;Declive;Rotatória,Não,1231584,Reboque,REB/GUERRA,1989,,,,,,,,,-30.36176695,-53.51829886,SPRF-RS,DEL09-RS,UOP02-DEL09-RS,REB,GUERRA,Sem Feridos,Sul,6,Manhã
694573,1546293,2025-05-30,sexta-feira,06:40:00,PR,476,"152,4",ARAUCARIA,Não,Reação tardia ou ineficiente do condutor,1,Colisão frontal,Com Vítimas Feridas,Pleno dia,Decrescente,Nevoeiro/Neblina,Dupla,Reta,Não,1233616,Motocicleta,HONDA/CG 150 TITAN ESD,2012,Condutor,Lesões Leves,37,Masculino,0,1,0,0,-25.57324979,-49.3866241,SPRF-PR,DEL01-PR,UOP06-DEL01-PR,HONDA,CG 150 TITAN ESD,Leve,Sul,6,Manhã
687379,1528779,2025-04-26,sábado,03:20:00,PR,277,"595,7",CASCAVEL,Não,Suicídio (presumido),4,Colisão com objeto,Com Vítimas Fatais,Plena Noite,Decrescente,Nublado,Dupla,Reta,Sim,1218435,Automóvel,FIAT/SIENA ESSENCE 1.6,2013,Passageiro,Ileso,13,Feminino,1,0,0,0,-24.98673107,-53.50617852,SPRF-PR,DEL04-PR,UOP01-DEL04-PR,FIAT,SIENA ESSENCE 1.6,Sem Feridos,Sul,3,Madrugada
694996,1547433,2025-05-31,sábado,18:45:00,GO,80,13,PADRE BERNARDO,Não,Ausência de reação do condutor,4,Saída de leito carroçável,Com Vítimas Fatais,Plena Noite,Decrescente,Céu Claro,Simples,Reta;Aclive,Não,1233237,Automóvel,TOYOTA/COROLLA GLI18 CVT,2017,Passageiro,Lesões Leves,64,Feminino,0,1,0,0,-15.431935,-48.193458,SPRF-DF,DEL03-DF,UOP02-DEL03-DF,TOYOTA,COROLLA GLI18 CVT,Leve,Centro-Oeste,18,Noite
685702,1522925,2025-04-18,sexta-feira,10:15:00,PR,116,149,MANDIRITUBA,Sim,Condutor deixou de manter distância do veículo da frente,1,Colisão traseira,Sem Vítimas,Pleno dia,Crescente,Céu Claro,Simples,Reta,Não,1215208,Caminhonete,PEUGEOT/HOGGAR XR,2011,Condutor,Ileso,44,Masculino,1,0,0,0,-25.840285,-49.3451,SPRF-PR,DEL01-PR,UOP03-DEL01-PR,PEUGEOT,HOGGAR XR,Sem Feridos,Sul,10,Manhã
692506,1539633,2025-05-12,segunda-feira,15:30:00,BA,101,200,CACHOEIRA,Sim,Reação tardia ou ineficiente do condutor,1,Tombamento,Sem Vítimas,Pleno dia,Crescente,Céu Claro,Simples,Curva;Declive,Não,1228275,Caminhão-trator,VOLVO/FH 460 6X4T,2012,Condutor,Ileso,35,Masculino,1,0,0,0,-12.6014,-38.9658,SPRF-BA,DEL01-BA,UOP03-DEL01-BA,VOLVO,FH 460 6X4T,Sem Feridos,Nordeste,15,Tarde
691883,1538405,2025-05-17,sábado,15:50:00,MG,381,"593,8",CARMOPOLIS DE MINAS,Sim,Reação tardia ou ineficiente do condutor,2,Colisão com objeto,Com Vítimas Fatais,Pleno dia,Crescente,Sol,Dupla,Reta,Não,1227249,Automóvel,TOYOTA/COROLLA XLI18FLEX,2008,Passageiro,Óbito,22,Masculino,0,0,0,1,-20.56767376,-44.67429221,SPRF-MG,DEL04-MG,UOP01-DEL04-MG,TOYOTA,COROLLA XLI18FLEX,Fatal,Sudeste,15,Tarde
668627,1508894,2025-03-21,sexta-feira,09:30:00,BA,101,649,ITAPEBI,Sim,Velocidade Incompatível,1,Colisão lateral sentido oposto,Com Vítimas Feridas,Pleno dia,Crescente,Sol,Simples,Curva,Não,1203755,Automóvel,FIAT/PALIO ATTRACTIV 1.0,2013,Condutor,Ileso,50,Masculino,1,0,0,0,-15.93134869,-39.56274033,SPRF-BA,DEL05-BA,UOP02-DEL05-BA,FIAT,PALIO ATTRACTIV 1.0,Sem Feridos,Nordeste,9,Manhã
663331,1495937,2025-02-24,segunda-feira,08:00:00,SP,116,"116,4",TAUBATE,Sim,Trafegar com motocicleta (ou similar) entre as faixas,1,Colisão traseira,Com Vítimas Feridas,Pleno dia,Decrescente,Sol,Dupla,Reta,Não,1193583,Automóvel,FIAT/MOBI LIKE,2024,Condutor,Ileso,36,Masculino,1,0,0,0,-23.05376319,-45.6088049,SPRF-SP,DEL02-SP,UOP02-DEL02-SP,FIAT,MOBI LIKE,Sem Feridos,Sudeste,8,Manhã
687189,1527004,2025-04-25,sexta-feira,08:08:00,PE,232,"37,7",VITORIA DE SANTO ANTAO,Sim,Condutor deixou de manter distância do veículo da frente,3,Colisão com objeto,Com Vítimas Feridas,Pleno dia,Crescente,Céu Claro,Dupla,Reta,Não,1218138,Automóvel,CHEV/ONIX 10TMT LT1,2022,Passageiro,Ileso,32,Masculino,1,0,0,0,-8.115449,-35.220145,SPRF-PE,DEL01-PE,UOP01-DEL01-PE,CHEV,ONIX 10TMT LT1,Sem Feridos,Nordeste,8,Manhã
658661,1484389,2025-02-01,sábado,14:45:00,RO,364,18,VILHENA,Sim,Reação tardia ou ineficiente do condutor,2,Tombamento,Com Vítimas Feridas,Pleno dia,Decrescente,Chuva,Simples,Reta,Não,1184684,Motocicleta,HONDA/CB 300R,2012,Condutor,Lesões Graves,23,Masculino,0,0,1,0,-12.72972661,-60.17479789,SPRF-RO,DEL04-RO,UOP01-DEL04-RO,HONDA,CB 300R,Grave,Norte,14,Tarde
699990,1557575,2025-06-23,segunda-feira,08:30:00,MG,116,"405,5",GOVERNADOR VALADARES,Sim,Ausência de reação do condutor,2,Colisão lateral mesmo sentido,Com Vítimas Feridas,Pleno dia,Crescente,Céu Claro,Simples,Curva,Não,1242870,Caminhão-trator,VW/19.360 CTC 4X2,2022,Condutor,Lesões Leves,44,Masculino,0,1,0,0,-18.81557063,-41.98366351,SPRF-MG,DEL06-MG,UOP01-DEL06-MG,VW,19.360 CTC 4X2,Leve,Sudeste,8,Manhã
660544,1489242,2025-02-10,segunda-feira,16:20:00,PB,230,"313,3",SAO MAMEDE,Não,Ausência de reação do condutor,2,Saída de leito carroçável,Com Vítimas Feridas,Pleno dia,Crescente,Céu Claro,Simples,Reta,Não,1188298,Automóvel,HONDA/CIVIC EXL CVT,2019,Condutor,Ileso,56,Masculino,1,0,0,0,-6.9371,-37.0949,SPRF-PB,DEL03-PB,UOP01-DEL03-PB,HONDA,CIVIC EXL CVT,Sem Feridos,Nordeste,16,Tarde
655060,1474744,2025-01-14,terça-feira,13:01:00,RJ,116,187,NOVA IGUACU,Sim,Demais falhas mecânicas ou elétricas,1,Tombamento,Com Vítimas Feridas,Pleno dia,Crescente,Céu Claro,Dupla,Reta,Não,1177726,Motocicleta,HONDA/CG 160 START,2023,Passageiro,Lesões Leves,18,Feminino,0,1,0,0,-22.73883756,-43.47245197,SPRF-RJ,DEL06-RJ,UOP01-DEL06-RJ,HONDA,CG 160 START,Leve,Sudeste,13,Tarde
688585,1530295,2025-05-02,sexta-feira,02:00:00,PR,277,82,CURITIBA,Sim,Reação tardia ou ineficiente do condutor,2,Queda de ocupante de veículo,Com Vítimas Fatais,Plena Noite,Decrescente,Nublado,Dupla,Reta,Sim,1220796,Motocicleta,YAMAHA/YBR 125K,2007,Condutor,Óbito,,Masculino,0,0,0,1,-25.454397,-49.225004,SPRF-PR,DEL01-PR,UOP03-DEL01-PR,YAMAHA,YBR 125K,Fatal,Sul,2,Madrugada
654323,,2025-01-10,sexta-feira,22:15:00,GO,20,211,POSSE,Não,Velocidade Incompatível,2,Derramamento de carga,Com Vítimas Feridas,Plena Noite,Decrescente,Garoa/Chuvisco,Simples,Aclive;Curva,Não,1177765,Semireboque,SR/GUERRA AG GR,2009,,,,,,,,,-14.266476,-46.37154,SPRF-DF,DEL02-DF,UOP03-DEL02-DF,SR,GUERRA AG GR,Sem Feridos,Centro-Oeste,22,Noite
690994,1536082,2025-05-13,terça-feira,10:40:00,SC,101,463,PASSO DE TORRES,Sim,Condutor deixou de manter distância do veículo da frente,1,Colisão com objeto,Com Vítimas Feridas,Pleno dia,Decrescente,Céu Claro,Dupla,Curva,Não,1225363,Automóvel,I/RENAULT CLIO EXP1016VH,2013,Condutor,Lesões Leves,26,Feminino,0,1,0,0,-29.287879,-49.757012,SPRF-RS,DEL03-RS,UOP02-DEL03-RS,I,RENAULT CLIO EXP1016VH,Leve,Sul,10,Manhã
690374,1534611,2025-05-10,sábado,17:50:00,PR,277,"722,2",FOZ DO IGUACU,Sim,Acessar a via sem observar a presença dos outros veículos,1,Colisão transversal,Com Vítimas Feridas,Anoitecer,Decrescente,Céu Claro,Dupla,Reta,Sim,1224164,Caminhonete,FORD/F250 ARB,2005,Condutor,Ileso,47,Masculino,1,0,0,0,-25.49391707,-54.51810515,SPRF-PR,DEL05-PR,UOP03-DEL05-PR,FORD,F250 ARB,Sem Feridos,Sul,17,Tarde
654742,1473877,2025-01-13,segunda-feira,00:00:00,RS,386,"342,6",LAJEADO,Não,Acesso irregular,3,Queda de ocupante de veículo,Com Vítimas Feridas,Plena Noite,Decrescente,Céu Claro,Múltipla,Reta;Interseção de Vias,Sim,1177128,Motocicleta,HONDA/CG 150 JOB,2007,Condutor,Lesões Graves,25,Masculino,0,0,1,0,-29.43419777,-52.0053863,SPRF-RS,DEL04-RS,UOP01-DEL04-RS,HONDA,CG 150 JOB,Grave,Sul,0,Madrugada
659717,1489078,2025-02-06,quinta-feira,19:30:00,MT,364,"205,5",RONDONOPOLIS,Sim,Ingestão de álcool pelo condutor,1,Queda de ocupante de veículo,Com Vítimas Feridas,Plena Noite,Crescente,Céu Claro,Dupla,Reta,Não,,,,,Testemunha,Não Informado,,Não Informado,0,0,0,0,-16.45928621,-54.66092345,SPRF-MT,DEL02-MT,UOP01-DEL02-MT,,,Sem Feridos,Centro-Oeste,19,Noite
686421,1525158,2025-04-21,segunda-feira,10:00:00,MS,158,"6,2",CASSILANDIA,Sim,Conversão proibida,2,Saída de leito carroçável,Com Vítimas Feridas,Pleno dia,Crescente,Nublado,Simples,Reta,Não,1216766,Caminhonete,FIAT/TORO FREEDOM AT,2019,Passageiro,Ileso,4,Feminino,1,0,0,0,-19.13211518,-51.70682388,SPRF-MS,DEL08-MS,UOP01-DEL08-MS,FIAT,TORO FREEDOM AT,Sem Feridos,Centro-Oeste,10,Manhã
660840,1490024,2025-02-12,quarta-feira,05:25:00,PR,116,"77,7",PIRAQUARA,Não,Avarias e/ou desgaste excessivo no pneu,3,Capotamento,Com Vítimas Fatais,Amanhecer,Decrescente,Céu Claro,Dupla,Curva,Não,1188850,Caminhonete,MMC/L200 TRITON SPT GL,2018,Passageiro,Lesões Leves,84,Feminino,0,1,0,0,-25.38360492,-49.05301123,SPRF-PR,DEL01-PR,UOP02-DEL01-PR,MMC,L200 TRITON SPT GL,Leve,Sul,5,Manhã
692664,1541940,2025-05-21,quarta-feira,06:00:00,PR,376,678,GUARATUBA,Sim,Velocidade Incompatível,2,Colisão com objeto,Com Vítimas Feridas,Amanhecer,Crescente,Garoa/Chuvisco,Dupla,Curva,Não,1230104,Automóvel,GM/CELTA 2P SPIRIT,2007,Condutor,Ileso,47,Masculino,1,0,0,0,-25.95523752,-48.90102625,SPRF-PR,DEL01-PR,UOP04-DEL01-PR,GM,CELTA 2P SPIRIT,Sem Feridos,Sul,6,Manhã
690497,1534900,2025-05-11,domingo,07:15:00,RS,386,345,LAJEADO,Sim,Ausência de reação do condutor,1,Saída de leito carroçável,Com Vítimas Feridas,Pleno dia,Crescente,Céu Claro,Simples,Em Obras;Reta;Viaduto,Sim,1224390,Automóvel,GM/CORSA WIND,1994,Condutor,Lesões Graves,31,Masculino,0,0,1,0,-29.44084109,-51.9888155,SPRF-RS,DEL04-RS,UOP01-DEL04-RS,GM,CORSA WIND,Grave,Sul,7,Manhã
665866,1502287,2025-03-08,sábado,04:00:00,SC,282,"525,1",XAXIM,Não,Ingestão de álcool pelo condutor,1,Colisão frontal,Com Vítimas Feridas,Plena Noite,Crescente,Céu Claro,Simples,Curva,Não,1198537,Motocicleta,HONDA/NXR150 BROS KS,2006,Condutor,Lesões Graves,43,Masculino,0,0,1,0,-26.936973,-52.499061,SPRF-SC,DEL07-SC,UOP01-DEL07-SC,HONDA,NXR150 BROS KS,Grave,Sul,4,Madrugada
664056,1498006,2025-02-27,quinta-feira,16:20:00,SP,116,394,MIRACATU,Sim,Ausência de reação do condutor,1,Colisão traseira,Sem Vítimas,Pleno dia,Crescente,Céu Claro,Simples,Retorno Regulamentado;Rotatória,Sim,1195245,Automóvel,I/NISSAN SENTRA 20SL CVT,2013,Condutor,Ileso,26,Masculino,1,0,0,0,-24.28799211,-47.46000594,SPRF-SP,DEL04-SP,UOP02-DEL04-SP,I,NISSAN SENTRA 20SL CVT,Sem Feridos,Sudeste,16,Tarde
652795,1468443,2025-01-02,quinta-feira,15:35:00,MG,116,284,TEOFILO OTONI,Não,Acumulo de água sobre o pavimento,1,Colisão lateral sentido oposto,Com Vítimas Feridas,Pleno dia,Crescente,Chuva,Simples,Reta,Não,1173506,Caminhonete,CHEVROLET/S10 LS DD4,2014,Passageiro,Ileso,53,Masculino,1,0,0,0,-17.91853602,-41.52729437,SPRF-MG,DEL11-MG,UOP01-DEL11-MG,CHEVROLET,S10 LS DD4,Sem Feridos,Sudeste,15,Tarde
657278,1480756,2025-01-25,sábado,13:30:00,PR,116,"193,1",CAMPO DO TENENTE,Sim,Demais falhas mecânicas ou elétricas,1,Eventos atípicos,Sem Vítimas,Pleno dia,Crescente,Garoa/Chuvisco,Simples,Reta,Não,1182000,Caminhão-trator,SCANIA/R450 A6X2,2021,Condutor,Ileso,38,Masculino,1,0,0,0,-25.97956005,-49.66051132,SPRF-SC,DEL06-SC,UOP01-DEL06-SC,SCANIA,R450 A6X2,Sem Feridos,Sul,13,Tarde
692386,1539406,2025-05-19,segunda-feira,17:00:00,BA,242,796,BARREIRAS,Não,Velocidade Incompatível,1,Colisão transversal,Com Vítimas Feridas,Anoitecer,Decrescente,Céu Claro,Simples,Reta,Não,1228086,Micro-ônibus,I/FORD TRANSIT 460 B,2023,Passageiro,Lesões Leves,77,Masculino,0,1,0,0,-12.164813,-44.875263,SPRF-BA,DEL10-BA,UOP01-DEL10-BA,I,FORD TRANSIT 460 B,Leve,Nordeste,17,Tarde
662360,1493736,2025-02-19,quarta-feira,11:40:00,RO,364,713,PORTO VELHO,Não,Reação tardia ou ineficiente do condutor,1,Engavetamento,Sem Vítimas,Pleno dia,Crescente,Nublado,Dupla,Reta;Declive,Sim,1191780,Automóvel,VW/GOL 1.0,2003,Condutor,Ileso,32,Masculino,1,0,0,0,-8.77331583,-63.87969248,SPRF-RO,DEL01-RO,UOP01-DEL01-RO,VW,GOL 1.0,Sem Feridos,Norte,11,Manhã
695197,1546094,2025-06-01,domingo,15:00:00,BA,116,"798,1",VITORIA DA CONQUISTA,Sim,Ausência de reação do condutor,2,Colisão lateral sentido oposto,Com Vítimas Feridas,Pleno dia,Decrescente,Garoa/Chuvisco,Simples,Reta,Não,1233462,Automóvel,CHEVROLET/COBALT 18A LTZ,2017,Condutor,Ileso,51,Masculino,1,0,0,0,-14.7598105,-40.60296631,SPRF-BA,DEL08-BA,UOP02-DEL08-BA,CHEVROLET,COBALT 18A LTZ,Sem Feridos,Nordeste,15,Tarde
658986,1485736,2025-02-03,segunda-feira,07:35:00,PB,101,"83,7",BAYEUX,Sim,Manobra de mudança de faixa,1,Colisão lateral mesmo sentido,Com Vítimas Feridas,Pleno dia,Crescente,Céu Claro,Dupla,Reta,Sim,1185622,Caminhão,,0,Condutor,Não Informado,,Não Informado,0,0,0,0,-7.1337703,-34.92963914,SPRF-PB,DEL01-PB,UOP01-DEL01-PB,,,Sem Feridos,Nordeste,7,Manhã
696961,1550168,2025-06-01,domingo,08:00:00,MG,251,386,GRAO MOGOL,Sim,Demais falhas mecânicas ou elétricas,1,Incêndio,Sem Vítimas,Pleno dia,Decrescente,Céu Claro,Simples,Reta,Não,1236812,Caminhão-trator,SCANIA/P94GA4X2NZ 310,2006,Condutor,Ileso,48,Masculino,1,0,0,0,-16.30066,-42.71173,SPRF-MG,DEL12-MG,UOP01-DEL12-MG,SCANIA,P94GA4X2NZ 310,Sem Feridos,Sudeste,8,Manhã
671599,1515944,2025-04-04,sexta-feira,19:00:00,MG,40,"695,3",ALFREDO VASCONCELOS,Sim,Pista Escorregadia,2,Queda de ocupante de veículo,Com Vítimas Feridas,Plena Noite,Decrescente,Nublado,Simples,Curva,Não,1209602,Motocicleta,HONDA/CG 150 TITAN KS,2005,Condutor,Lesões Graves,20,Masculino,0,0,1,0,-21.16642,-43.75687,SPRF-MG,DEL05-MG,UOP02-DEL05-MG,HONDA,CG 150 TITAN KS,Grave,Sudeste,19,Noite
671344,1515296,2025-04-03,quinta-feira,17:45:00,RS,386,74,BOA VISTA DAS MISSOES,Sim,Acessar a via sem observar a presença dos outros veículos,2,Saída de leito carroçável,Com Vítimas Fatais,Pleno dia,Crescente,Nublado,Simples,Reta;Interseção de Vias,Sim,1209051,Caminhão-trator,SCANIA/R540 A6X4,2024,Condutor,Ileso,34,Masculino,1,0,0,0,-27.68306552,-53.30813292,SPRF-RS,DEL08-RS,UOP02-DEL08-RS,SCANIA,R540 A6X4,Sem Feridos,Sul,17,Tarde
692565,1539878,2025-05-20,terça-feira,15:01:00,MS,262,"351,5",CAMPO GRANDE,Sim,Conversão proibida,3,Saída de leito carroçável,Com Vítimas Feridas,Pleno dia,Decrescente,Céu Claro,Dupla,Reta;Retorno Regulamentado,Não,1228451,Caminhão-trator,VOLVO/FH 540 6X4T,2023,Condutor,Ileso,45,Masculino,1,0,0,0,-20.570062,-54.645604,SPRF-MS,DEL01-MS,UOP03-DEL01-MS,VOLVO,FH 540 6X4T,Sem Feridos,Centro-Oeste,15,Tarde
696677,1549800,2025-06-08,domingo,03:10:00,GO,70,7,AGUAS LINDAS DE GOIAS,Sim,Ingestão de álcool pelo condutor,1,Colisão com objeto,Com Vítimas Feridas,Pleno dia,Decrescente,Céu Claro,Dupla,Reta,Sim,1236533,Caminhonete,VW/SAVEIRO 1.6 CE,2011,Passageiro,Lesões Leves,23,Feminino,0,1,0,0,-15.74456102,-48.26742847,SPRF-DF,DEL03-DF,UOP02-DEL03-DF,VW,SAVEIRO 1.6 CE,Leve,Centro-Oeste,3,Madrugada
669952,,2025-03-27,quinta-feira,20:30:00,MG,365,793,GURINHATA,Sim,Objeto estático sobre o leito carroçável,1,Colisão traseira,Com Vítimas Feridas,Plena Noite,Crescente,Céu Claro,Simples,Reta;Em Obras,Não,1207449,Semireboque,SR/RANDON SR BA RTD2E,2021,,,,,,,,,-18.928369,-49.846337,SPRF-MG,DEL15-MG,UOP03-DEL15-MG,SR,RANDON SR BA RTD2E,Sem Feridos,Sudeste,20,Noite
665431,1501817,2025-03-06,quinta-feira,05:00:00,PR,277,721,FOZ DO IGUACU,Sim,Demais falhas mecânicas ou elétricas,2,Capotamento,Sem Vítimas,Plena Noite,Decrescente,Céu Claro,Dupla,Reta,Sim,1198190,Automóvel,GM/VECTRA CD,1998,Condutor,Ileso,46,Feminino,1,0,0,0,-25.4898072,-54.5084393,SPRF-PR,DEL05-PR,UOP03-DEL05-PR,GM,VECTRA CD,Sem Feridos,Sul,5,Manhã
666144,,2025-03-09,domingo,13:00:00,MG,365,249,BURITIZEIRO,Não,Avarias e/ou desgaste excessivo no pneu,1,Incêndio,Sem Vítimas,Pleno dia,Crescente,Sol,Simples,Aclive,Não,1199107,Semireboque,SR/RANDON SR FG FR 03E,2022,,,,,,,,,-17.820958,-45.448696,SPRF-MG,DEL10-MG,UOP02-DEL010-MG,SR,RANDON SR FG FR 03E,Sem Feridos,Sudeste,13,Tarde
664817,,2025-03-02,domingo,18:30:00,PR,277,"108,7",CURITIBA,Não,Velocidade Incompatível,4,Atropelamento de Pedestre,Com Vítimas Fatais,Anoitecer,Decrescente,Céu Claro,Dupla,Aclive;Reta,Sim,1196595,Semireboque,SR/RECRUSUL SRS 3E,2022,,,,,,,,,-25.42968573,-49.37854236,SPRF-PR,DEL03-PR,UOP03-DEL03-PR,SR,RECRUSUL SRS 3E,Sem Feridos,Sul,18,Noite
697691,1551879,2025-06-12,quinta-feira,16:00:00,GO,70,6,AGUAS LINDAS DE GOIAS,Não,Reação tardia ou ineficiente do condutor,3,Queda de ocupante de veículo,Com Vítimas Feridas,Pleno dia,Crescente,Nublado,Dupla,Reta,Sim,1238253,Automóvel,FIAT/UNO ATTRACTIVE 1.0,2019,Condutor,Ileso,53,Feminino,1,0,0,0,-15.740677,-48.270815,SPRF-DF,DEL03-DF,UOP02-DEL03-DF,FIAT,UNO ATTRACTIVE 1.0,Sem Feridos,Centro-Oeste,16,Tarde
689040,1531400,2025-05-04,domingo,11:35:00,SC,282,"184,7",BOCAINA DO SUL,Não,Falta de elemento de contenção que evite a saída do leito carroçável,1,Saída de leito carroçável,Com Vítimas Feridas,Pleno dia,Crescente,Céu Claro,Simples,Reta,Não,1221640,Automóvel,I/FIAT CRONOS DRIVE AT,2018,Condutor,Lesões Leves,74,Masculino,0,1,0,0,-27.73445882,-49.98389304,SPRF-SC,DEL05-SC,UOP01-DEL05-SC,I,FIAT CRONOS DRIVE AT,Leve,Sul,11,Manhã
672332,1517867,2025-04-08,terça-feira,07:30:00,GO,153,513,APARECIDA DE GOIANIA,Sim,Ausência de reação do condutor,1,Colisão traseira,Com Vítimas Feridas,Pleno dia,Decrescente,Céu Claro,Simples,Reta,Não,1211132,Motoneta,HONDA/BIZ 125 ES,2012,Condutor,Ileso,31,Masculino,1,0,0,0,-16.818858,-49.24045,SPRF-GO,DEL01-GO,UOP03-DEL01-GO,HONDA,BIZ 125 ES,Sem Feridos,Centro-Oeste,7,Manhã
690049,1533971,2025-05-09,sexta-feira,16:20:00,ES,101,"303,4",VIANA,Não,Velocidade Incompatível,3,Queda de ocupante de veículo,Com Vítimas Fatais,Pleno dia,Decrescente,Céu Claro,Dupla,Reta,Sim,,,,,Pedestre,Óbito,75,Masculino,0,0,0,1,-20.37810151,-40.44887066,SPRF-ES,DEL01-ES,UOP01-DEL01-ES,,,Fatal,Sudeste,16,Tarde
654918,1474499,2025-01-13,segunda-feira,18:30:00,ES,259,"101,3",BAIXO GUANDU,Sim,Acessar a via sem observar a presença dos outros veículos,1,Colisão transversal,Com Vítimas Feridas,Plena Noite,Crescente,Céu Claro,Simples,Reta,Não,1177547,Automóvel,FIAT/SIENA ESSENCE 1.6,2014,Condutor,Ileso,56,Masculino,1,0,0,0,-19.52023464,-41.00239031,SPRF-ES,DEL02-ES,UOP01-DEL02-ES,FIAT,SIENA ESSENCE 1.6,Sem Feridos,Sudeste,18,Noite
695840,1547736,2025-06-04,quarta-feira,17:20:00,MG,40,625,CONSELHEIRO LAFAIETE,Não,Ausência de sinalização,1,Engavetamento,Com Vítimas Feridas,Anoitecer,Crescente,Céu Claro,Simples,Reta,Não,1234802,Automóvel,I/FIAT CRONOS DRIVE1.3AT,2025,Condutor,Ileso,54,Masculino,1,0,0,0,-20.62426,-43.80843,SPRF-MG,DEL05-MG,UOP02-DEL05-MG,I,FIAT CRONOS DRIVE1.3AT,Sem Feridos,Sudeste,17,Tarde
655091,1477100,2025-01-14,terça-feira,12:30:00,PI,135,401,REDENCAO DO GURGUEIA,Não,Velocidade Incompatível,1,Saída de leito carroçável,Com Vítimas Feridas,Pleno dia,Crescente,Chuva,Simples,Curva;Declive,Não,1177874,Ônibus,MBENZ/MPOLO PARADISO R,2004,Passageiro,Não Informado,,Não Informado,0,0,0,0,-9.41075383,-44.59663522,SPRF-PI,DEL03-PI,UOP02-DEL03-PI,MBENZ,MPOLO PARADISO R,Sem Feridos,Nordeste,12,Tarde
666097,1502765,2025-03-09,domingo,05:20:00,BA,418,44,CARAVELAS,Não,Animais na Pista,1,Saída de leito carroçável,Com Vítimas Feridas,Amanhecer,Crescente,Chuva,Simples,Reta,Não,1198919,Camioneta,I/FIAT FREEMONT EMOTION,2011,Passageiro,Lesões Leves,64,Masculino,0,1,0,0,-17.710858,-39.498993,SPRF-BA,DEL09-BA,UOP02-DEL09-BA,I,FIAT FREEMONT EMOTION,Leve,Nordeste,5,Manhã
653314,1470229,2025-01-05,domingo,10:00:00,RJ,354,20,RESENDE,Sim,Transitar na contramão,1,Colisão lateral sentido oposto,Com Vítimas Feridas,Pleno dia,Crescente,Céu Claro,Simples,Curva,Não,1174587,Caminhonete,FIAT/STRADA FIRE FLEX,2011,Condutor,Lesões Leves,58,Masculino,0,1,0,0,-22.477699,-44.70911,SPRF-RJ,DEL07-RJ,UOP02-DEL07-RJ,FIAT,STRADA FIRE FLEX,Leve,Sudeste,10,Manhã
701340,1560823,2025-06-29,domingo,09:30:00,MG,251,334,RUBELITA,Não,Condutor Dormindo,2,Derramamento de carga,Sem Vítimas,Pleno dia,Decrescente,Céu Claro,Simples,Curva;Declive,Não,1245521,Caminhão,M.BENZ/LK 1618,1991,Condutor,Ileso,69,Masculino,1,0,0,0,-16.2659104,-42.41229057,SPRF-MG,DEL12-MG,UOP02-DEL12-MG,M.BENZ,LK 1618,Sem Feridos,Sudeste,9,Manhã
662304,1493505,2025-02-19,quarta-feira,06:15:00,SP,116,228,SAO PAULO,Sim,Ultrapassagem Indevida,1,Colisão lateral mesmo sentido,Com Vítimas Feridas,Pleno dia,Crescente,Sol,Múltipla,Em Obras;Reta,Não,1191597,Caminhão-trator,VW/19.360 CTC 4X2,2022,Condutor,Ileso,47,Feminino,1,0,0,0,-23.50343484,-46.56638712,SPRF-SP,DEL01-SP,UOP01-DEL01-SP,VW,19.360 CTC 4X2,Sem Feridos,Sudeste,6,Manhã
666791,1504484,2025-03-12,quarta-feira,13:30:00,PA,222,"38,3",DOM ELISEU,Não,Velocidade Incompatível,2,Queda de ocupante de veículo,Com Vítimas Feridas,Pleno dia,Decrescente,Sol,Simples,Reta,Não,1200231,Motocicleta,HONDA/POP 110I,2016,Condutor,Lesões Leves,27,Feminino,0,1,0,0,-4.32319,-47.734011,SPRF-PA,DEL02-PA,UOP02-DEL02-PA,HONDA,POP 110I,Leve,Norte,13,Tarde
661051,1490802,2025-02-13,quinta-feira,03:50:00,PI,407,581,PAULISTANA,Não,Iluminação deficiente,4,Queda de ocupante de veículo,Com Vítimas Fatais,Plena Noite,Crescente,Céu Claro,Simples,Reta,Não,1189426,Motocicleta,YAMAHA/YBR 125K,2008,Condutor,Óbito,60,Masculino,0,0,0,1,-8.18598297,-41.10007298,SPRF-PI,DEL04-PI,UOP01-DEL04-PI,YAMAHA,YBR 125K,Fatal,Nordeste,3,Madrugada
664373,1498509,2025-02-28,sexta-feira,16:00:00,MT,174,543,COMODORO,Não,Acumulo de água sobre o pavimento,3,Colisão frontal,Com Vítimas Fatais,Pleno dia,Crescente,Chuva,Simples,Aclive,Não,1195694,Caminhão-trator,M.BENZ/ACTROS 2651S6X4,2019,Condutor,Ileso,63,Masculino,1,0,0,0,-13.15258956,-59.87681866,SPRF-MT,DEL04-MT,UOP02-DEL04-MT,M.BENZ,ACTROS 2651S6X4,Sem Feridos,Centro-Oeste,16,Tarde
688526,1530177,2025-05-01,quinta-feira,17:50:00,MT,163,539,DIAMANTINO,Não,Entrada inopinada do pedestre,1,Atropelamento de Pedestre,Com Vítimas Feridas,Anoitecer,Decrescente,Céu Claro,Dupla,Reta;Desvio Temporário;Em Obras,Não,1220683,Caminhão,VW/8.160 DRC 4X2,2014,Condutor,Ileso,59,Masculino,1,0,0,0,-14.314349,-56.140614,SPRF-MT,DEL01-MT,UOP01-DEL01-MT,VW,8.160 DRC 4X2,Sem Feridos,Centro-Oeste,17,Tarde
657944,1482700,2025-01-28,terça-feira,18:30:00,MG,40,"771,9",JUIZ DE FORA,Não,Velocidade Incompatível,1,Saída de leito carroçável,Com Vítimas Feridas,Plena Noite,Crescente,Chuva,Simples,Reta,Não,1183408,Automóvel,GM/CORSA SEDAN MAXX,2006,Condutor,Lesões Leves,52,Masculino,0,1,0,0,-21.60932712,-43.45892723,SPRF-MG,DEL05-MG,UOP01-DEL05-MG,GM,CORSA SEDAN MAXX,Leve,Sudeste,18,Noite
656418,1478787,2025-01-21,terça-feira,05:00:00,MG,262,"755,1",SACRAMENTO,Sim,Desrespeitar a preferência no cruzamento,1,Colisão transversal,Com Vítimas Feridas,Amanhecer,Decrescente,Céu Claro,Simples,Interseção de Vias,Não,1180498,Caminhonete,MMC/L200 TRITON SPO GL,2020,Passageiro,Ileso,46,Masculino,1,0,0,0,-19.65112859,-47.54557012,SPRF-MG,DEL13-MG,UOP01-DEL13-MG,MMC,L200 TRITON SPO GL,Sem Feridos,Sudeste,5,Manhã
653977,1471884,2025-01-09,quinta-feira,06:45:00,RN,101,81,NATAL,Sim,Ausência de reação do condutor,1,Colisão traseira,Com Vítimas Feridas,Pleno dia,Crescente,Céu Claro,Dupla,Reta,Sim,1175826,Motocicleta,,0,Condutor,Ileso,,Masculino,1,0,0,0,-5.76469466,-35.28295988,SPRF-RN,DEL02-RN,UOP01-DEL02-RN,,,Sem Feridos,Nordeste,6,Manhã
664016,1497777,2025-02-27,quinta-feira,14:00:00,PR,376,598,CURITIBA,Não,Trafegar com motocicleta (ou similar) entre as faixas,2,Tombamento,Com Vítimas Feridas,Pleno dia,Crescente,Sol,Dupla,Reta,Sim,1195046,Automóvel,I/NISSAN MARCH 10S FLEX,2013,Condutor,Ileso,37,Feminino,1,0,0,0,-25.48715881,-49.34636414,SPRF-PR,DEL01-PR,UOP06-DEL01-PR,I,NISSAN MARCH 10S FLEX,Sem Feridos,Sul,14,Tarde
687392,,2025-04-26,sábado,06:10:00,PR,376,159,MANDAGUACU,Não,Condutor deixou de manter distância do veículo da frente,3,Queda de ocupante de veículo,Com Vítimas Feridas,Pleno dia,Crescente,Céu Claro,Dupla,Reta,Não,1219607,Semireboque,SR/GUERRA ABERTA G4E140,2023,,,,,,,,,-23.32917342,-52.11150169,SPRF-PR,DEL09-PR,UOP02-DEL09-PR,SR,GUERRA ABERTA G4E140,Sem Feridos,Sul,6,Manhã
695366,1546404,2025-06-02,segunda-feira,12:40:00,BA,135,202,SAO DESIDERIO,Não,Velocidade Incompatível,1,Colisão traseira,Com Vítimas Feridas,Pleno dia,Decrescente,Sol,Dupla,Reta;Declive,Não,1233710,Caminhão-trator,VOLVO/FH 540 6X4T,2019,Condutor,Ileso,46,Masculino,1,0,0,0,-12.3387268,-44.9990995,SPRF-BA,DEL10-BA,UOP01-DEL10-BA,VOLVO,FH 540 6X4T,Sem Feridos,Nordeste,12,Tarde
653117,,2025-01-04,sábado,09:00:00,MT,364,"275,5",JACIARA,Sim,Demais falhas mecânicas ou elétricas,1,Engavetamento,Com Vítimas Feridas,Pleno dia,Decrescente,Nublado,Dupla,Declive;Reta,Não,1176838,Semireboque,SR/NOMA SRAB2E18 BCMT,2014,,,,,,,,,-15.95085604,-54.98237599,SPRF-MT,DEL05-MT,UOP02-DEL05-MT,SR,NOMA SRAB2E18 BCMT,Sem Feridos,Centro-Oeste,9,Manhã
685754,1524148,2025-04-18,sexta-feira,10:00:00,PE,407,"92,8",PETROLINA,Sim,Condutor deixou de manter distância do veículo da frente,1,Colisão traseira,Com Vítimas Feridas,Pleno dia,Decrescente,Céu Claro,Simples,Reta;Declive,Não,1216095,Caminhonete,FIAT/STRADA FREEDOM CD,2019,Condutor,Ileso,38,Masculino,1,0,0,0,-9.118198,-40.64189,SPRF-PE,DEL06-PE,UOP02-DEL06-PE,FIAT,STRADA FREEDOM CD,Sem Feridos,Nordeste,10,Manhã
673735,1520921,2025-04-14,segunda-feira,19:30:00,PR,277,723,FOZ DO IGUACU,Não,Condutor deixou de manter distância do veículo da frente,1,Colisão traseira,Com Vítimas Feridas,Plena Noite,Decrescente,Céu Claro,Dupla,Reta,Sim,1213685,Caminhonete,CHEVROLET/S10 LS DD4,2015,Condutor,Lesões Graves,66,Masculino,0,0,1,0,-25.49924474,-54.53088457,SPRF-PR,DEL05-PR,UOP03-DEL05-PR,CHEVROLET,S10 LS DD4,Grave,Sul,19,Noite
654607,1473470,2025-01-12,domingo,11:20:00,SP,381,38,ATIBAIA,Sim,Reação tardia ou ineficiente do condutor,1,Colisão traseira,Com Vítimas Feridas,Pleno dia,Crescente,Nublado,Dupla,Interseção de Vias,Sim,1176902,Automóvel,HONDA/CIVIC LXL FLEX,2010,Condutor,Ileso,39,Masculino,1,0,0,0,-23.1133221,-46.57174974,SPRF-SP,DEL03-SP,UOP01-DEL03-SP,HONDA,CIVIC LXL FLEX,Sem Feridos,Sudeste,11,Manhã
668424,1508395,2025-03-20,quinta-feira,11:15:00,RS,293,189,HULHA NEGRA,Sim,Reação tardia ou ineficiente do condutor,1,Colisão lateral mesmo sentido,Com Vítimas Feridas,Pleno dia,Crescente,Céu Claro,Simples,Reta,Não,1203357,Automóvel,IMP/PEUGEOT,2016,Passageiro,Ileso,8,Masculino,1,0,0,0,-31.3254381,-53.9855692,SPRF-RS,DEL11-RS,UOP03-DEL11-RS,IMP,PEUGEOT,Sem Feridos,Sul,11,Manhã
661446,1491586,2025-02-14,sexta-feira,23:45:00,GO,452,35,SANTA HELENA DE GOIAS,Não,Retorno proibido,3,Saída de leito carroçável,Com Vítimas Feridas,Plena Noite,Crescente,Nublado,Simples,Declive;Reta,Não,1190059,Automóvel,VW/POLO TRACK MA,2024,Passageiro,Ileso,13,Masculino,1,0,0,0,-17.915328,-50.599578,SPRF-GO,DEL04-GO,UOP01-DEL04-GO,VW,POLO TRACK MA,Sem Feridos,Centro-Oeste,23,Noite
661038,1490533,2025-02-13,quinta-feira,02:05:00,RJ,116,"278,6",BARRA MANSA,Sim,Reação tardia ou ineficiente do condutor,1,Colisão traseira,Com Vítimas Fatais,Plena Noite,Decrescente,Nublado,Múltipla,Reta,Não,1189246,Caminhão,IVECO/TECTOR 240E30SID,2022,Condutor,Óbito,56,Masculino,0,0,0,1,-22.55271018,-44.17778004,SPRF-RJ,DEL07-RJ,UOP02-DEL07-RJ,IVECO,TECTOR 240E30SID,Fatal,Sudeste,2,Madrugada
687978,,2025-04-29,terça-feira,05:10:00,MT,364,398,CUIABA,Não,Acessar a via sem observar a presença dos outros veículos,5,Colisão com objeto,Com Vítimas Feridas,Amanhecer,Decrescente,Garoa/Chuvisco,Múltipla,Reta,Não,1220558,Reboque,R/RANDON RE DL,2017,,,,,,,,,-15.67010715,-55.95168382,SPRF-MT,DEL01-MT,UOP02-DEL01-MT,R,RANDON RE DL,Sem Feridos,Centro-Oeste,5,Manhã
662209,1493292,2025-02-18,terça-feira,15:45:00,SP,116,448,REGISTRO,Sim,Reação tardia ou ineficiente do condutor,1,Tombamento,Com Vítimas Feridas,Pleno dia,Decrescente,Nublado,Dupla,Reta,Sim,,,,,Testemunha,Não Informado,,Não Informado,0,0,0,0,-24.52099699,-47.85336602,SPRF-SP,DEL05-SP,UOP01-DEL05-SP,,,Sem Feridos,Sudeste,15,Tarde
696046,,2025-06-05,quinta-feira,14:45:00,MG,40,581,OURO PRETO,Sim,Condutor Dormindo,1,Colisão frontal,Com Vítimas Feridas,Pleno dia,Crescente,Céu Claro,Simples,Reta,Não,1235123,Semireboque,REB/ROSSETTI SRBA ST3.25,2021,,,,,,,,,-20.20840394,-43.51110257,SPRF-MG,DEL01-MG,UOP02-DEL01-MG,REB,ROSSETTI SRBA ST3.25,Sem Feridos,Sudeste,14,Tarde
698786,1554574,2025-06-17,terça-feira,18:10:00,MG,116,581,MANHUACU,Não,Ausência de reação do condutor,1,Colisão lateral sentido oposto,Com Vítimas Feridas,Plena Noite,Crescente,Céu Claro,Simples,Curva,Não,1240495,Bicicleta,,0,Condutor,Lesões Leves,50,Masculino,0,1,0,0,-20.19011509,-42.18454634,SPRF-MG,DEL06-MG,UOP03-DEL06-MG,,,Leve,Sudeste,18,Noite
653773,1471225,2025-01-07,terça-feira,23:40:00,PR,277,102,SAO JOSE DOS PINHAIS,Sim,Reação tardia ou ineficiente do condutor,1,Colisão lateral mesmo sentido,Sem Vítimas,Plena Noite,Crescente,Nublado,Dupla,Viaduto,Não,1175347,Caminhão-trator,IVECO/STRALIS 600S44T,2021,Condutor,Ileso,39,Masculino,1,0,0,0,-25.569698,-49.18132782,SPRF-PR,DEL01-PR,UOP06-DEL01-PR,IVECO,STRALIS 600S44T,Sem Feridos,Sul,23,Noite
700500,1558896,2025-06-25,quarta-feira,20:00:00,SP,116,219,GUARULHOS,Não,Trafegar com motocicleta (ou similar) entre as faixas,2,Colisão lateral mesmo sentido,Com Vítimas Feridas,Plena Noite,Decrescente,Vento,Múltipla,Reta,Sim,1243933,Ônibus,M.BENZ/MPOLO TORINO U,2018,Condutor,Ileso,54,Masculino,1,0,0,0,-23.46193057,-46.48857878,SPRF-SP,DEL01-SP,UOP01-DEL01-SP,M.BENZ,MPOLO TORINO U,Sem Feridos,Sudeste,20,Noite
691723,1537981,2025-05-16,sexta-feira,19:30:00,PR,116,18,CURITIBA,Sim,Reação tardia ou ineficiente do condutor,1,Colisão traseira,Com Vítimas Feridas,Plena Noite,Crescente,Garoa/Chuvisco,Dupla,Interseção de Vias;Aclive;Reta,Sim,1226824,Motocicleta,HONDA/POP 110I,2022,Condutor,Lesões Graves,36,Masculino,0,0,1,0,-25.38891123,-49.19977069,SPRF-PR,DEL01-PR,UOP02-DEL01-PR,HONDA,POP 110I,Grave,Sul,19,Noite
700242,1558170,2025-06-24,terça-feira,13:30:00,SC,116,"5,6",MAFRA,Sim,Acessar a via sem observar a presença dos outros veículos,1,Colisão transversal,Com Vítimas Feridas,Pleno dia,Decrescente,Céu Claro,Simples,Reta;Interseção de Vias,Sim,1243331,Automóvel,FIAT/PALIO ATTRACTIV 1.0,2015,Passageiro,Lesões Leves,68,Feminino,0,1,0,0,-26.142,-49.819,SPRF-SC,DEL06-SC,UOP01-DEL06-SC,FIAT,PALIO ATTRACTIV 1.0,Leve,Sul,13,Tarde
662577,1494194,2025-01-12,domingo,03:30:00,PE,104,83,AGRESTINA,Sim,Transitar na contramão,2,Capotamento,Com Vítimas Feridas,Amanhecer,Decrescente,Céu Claro,Simples,Reta,Não,1192177,Caminhonete,I/TOYOTA HILUX CD4X4 SRV,2007,Condutor,Ileso,44,Masculino,1,0,0,0,-8.422589,-35.963135,SPRF-PE,DEL02-PE,UOP01-DEL02-PE,I,TOYOTA HILUX CD4X4 SRV,Sem Feridos,Nordeste,3,Madrugada
688027,1529056,2025-04-29,terça-feira,07:35:00,SC,101,"136,2",BALNEARIO CAMBORIU,Sim,Velocidade Incompatível,2,Colisão traseira,Com Vítimas Feridas,Pleno dia,Crescente,Céu Claro,Múltipla,Interseção de Vias;Declive,Sim,,,,,Testemunha,Não Informado,,Não Informado,0,0,0,0,-27.01049073,-48.61515848,SPRF-SC,DEL04-SC,UOP03-DEL04-SC,,,Sem Feridos,Sul,7,Manhã
688167,1529389,2025-04-30,quarta-feira,05:30:00,PR,376,"674,2",GUARATUBA,Sim,Ausência de reação do condutor,2,Saída de leito carroçável,Com Vítimas Fatais,Amanhecer,Crescente,Céu Claro,Dupla,Curva;Declive,Não,1219989,Caminhonete,GM/S10 SERTOES 2.8 D 4X4,2004,Condutor,Óbito,64,Masculino,0,0,0,1,-25.9191507,-48.9188323,SPRF-PR,DEL01-PR,UOP04-DEL01-PR,GM,S10 SERTOES 2.8 D 4X4,Fatal,Sul,5,Manhã
691699,1537827,2025-05-16,sexta-feira,18:40:00,MG,50,"8,9",UBERLANDIA,Sim,Acessar a via sem observar a presença dos outros veículos,3,Queda de ocupante de veículo,Com Vítimas Fatais,Plena Noite,Crescente,Céu Claro,Dupla,Reta,Não,1226785,Automóvel,GM/VECTRA CD,1997,Condutor,Ileso,43,Masculino,1,0,0,0,-18.8786413,-48.2089801,SPRF-MG,DEL15-MG,UOP01-DEL15-MG,GM,VECTRA CD,Sem Feridos,Sudeste,18,Noite
665644,1504450,2025-03-07,sexta-feira,06:40:00,MG,40,"524,4",CONTAGEM,Sim,Pedestre cruzava a pista fora da faixa,1,Engavetamento,Com Vítimas Feridas,Pleno dia,Crescente,Céu Claro,Dupla,Aclive;Reta,Sim,1200200,Motocicleta,HONDA/CG 125 FAN ES,2011,Condutor,Lesões Graves,34,Masculino,0,0,1,0,-19.877074,-44.0523882,SPRF-MG,DEL01-MG,UOP02-DEL01-MG,HONDA,CG 125 FAN ES,Grave,Sudeste,6,Manhã
671387,1517302,2025-04-03,quinta-feira,21:20:00,PR,376,"603,5",CURITIBA,Sim,Velocidade Incompatível,4,Colisão transversal,Com Vítimas Fatais,Plena Noite,Decrescente,Nublado,Dupla,Reta,Sim,1210636,Caminhão-trator,VOLVO/FH 400 6X2T,2007,Condutor,Ileso,60,Masculino,1,0,0,0,-25.53081884,-49.32483304,SPRF-PR,DEL01-PR,UOP06-DEL01-PR,VOLVO,FH 400 6X2T,Sem Feridos,Sul,21,Noite
695493,1546731,2025-06-03,terça-feira,05:40:00,RS,386,"344,5",LAJEADO,Não,Sinalização mal posicionada,1,Colisão com objeto,Com Vítimas Feridas,Plena Noite,Decrescente,Nublado,Múltipla,Curva;Desvio Temporário;Em Obras,Sim,1233982,Motocicleta,HONDA/XRE 190,2018,Passageiro,Ileso,54,Feminino,1,0,0,0,-29.44175078,-51.98794691,SPRF-RS,DEL04-RS,UOP01-DEL04-RS,HONDA,XRE 190,Sem Feridos,Sul,5,Manhã
659889,1487746,2025-02-07,sexta-feira,19:10:00,MG,40,"603,4",CONGONHAS,Não,Velocidade Incompatível,3,Colisão frontal,Com Vítimas Fatais,Plena Noite,Decrescente,Céu Claro,Simples,Curva;Aclive,Não,1187097,Ônibus,M.BENZ/IRIZAR PB R,2018,Condutor,Ileso,36,Masculino,1,0,0,0,-20.45146264,-43.84102821,SPRF-MG,DEL05-MG,UOP02-DEL05-MG,M.BENZ,IRIZAR PB R,Sem Feridos,Sudeste,19,Noite
695741,1547396,2025-06-04,quarta-feira,08:20:00,MG,381,482,BETIM,Sim,Trafegar com motocicleta (ou similar) entre as faixas,1,Colisão lateral mesmo sentido,Com Vítimas Feridas,Pleno dia,Decrescente,Céu Claro,Múltipla,Declive;Reta,Sim,1234532,Motocicleta,HONDA/CG 160 START,2021,Condutor,Lesões Leves,24,Masculino,0,1,0,0,-19.9590122,-44.0699469,SPRF-MG,DEL01-MG,UOP03-DEL01-MG,HONDA,CG 160 START,Leve,Sudeste,8,Manhã
669837,1511922,2025-03-27,quinta-feira,08:10:00,MA,135,5,SAO LUIS,Sim,Reação tardia ou ineficiente do condutor,2,Colisão lateral mesmo sentido,Sem Vítimas,Pleno dia,Crescente,Céu Claro,Dupla,Reta,Não,1206224,Motocicleta,JTA/SUZUKI EN125 YES,2009,Condutor,Ileso,43,Masculino,1,0,0,0,-2.627718,-44.3153,SPRF-MA,DEL01-MA,UOP01-DEL01-MA,JTA,SUZUKI EN125 YES,Sem Feridos,Nordeste,8,Manhã
658449,1483892,2025-01-31,sexta-feira,14:00:00,MG,381,812,CAREACU,Sim,Velocidade Incompatível,1,Saída de leito carroçável,Com Vítimas Feridas,Pleno dia,Crescente,Nublado,Dupla,Reta,Não,1184294,Automóvel,CHEVROLET/ONIX 1.4MT LTZ,2014,Passageiro,Lesões Graves,5,Masculino,0,0,1,0,-22.06199504,-45.70068392,SPRF-MG,DEL16-MG,UOP02-DEL16-MG,CHEVROLET,ONIX 1.4MT LTZ,Grave,Sudeste,14,Tarde
671387,,2025-04-03,quinta-feira,21:20:00,PR,376,"603,5",CURITIBA,Não,Falta de elemento de contenção que evite a saída do leito carroçável,1,Colisão traseira,Com Vítimas Fatais,Plena Noite,Decrescente,Nublado,Dupla,Reta,Sim,1210637,Semireboque,SR/RANDON SR CA,2009,,,,,,,,,-25.53081884,-49.32483304,SPRF-PR,DEL01-PR,UOP06-DEL01-PR,SR,RANDON SR CA,Sem Feridos,Sul,21,Noite
652901,1468884,2025-01-03,sexta-feira,08:58:00,PB,230,"56,4",CRUZ DO ESPIRITO SANTO,Sim,Demais falhas mecânicas ou elétricas,2,Saída de leito carroçável,Com Vítimas Feridas,Pleno dia,Decrescente,Céu Claro,Dupla,Reta,Não,1173771,Motocicleta,HONDA/XRE 190,2016,Condutor,Lesões Graves,53,Masculino,0,0,1,0,-7.2021,-35.1038,SPRF-PB,DEL01-PB,UOP02-DEL01-PB,HONDA,XRE 190,Grave,Nordeste,8,Manhã
657280,1480764,2025-01-25,sábado,16:00:00,BA,324,"513,3",FEIRA DE SANTANA,Sim,Ingestão de álcool pelo condutor,1,Colisão transversal,Com Vítimas Feridas,Pleno dia,Decrescente,Céu Claro,Simples,Reta,Sim,1182006,Motocicleta,HONDA/POP 110I,2024,Condutor,Lesões Leves,46,Masculino,0,1,0,0,-12.23149473,-38.95730016,SPRF-BA,DEL02-BA,UOP01-DEL02-BA,HONDA,POP 110I,Leve,Nordeste,16,Tarde
657514,1481349,2025-01-26,domingo,15:54:00,SC,470,32,GASPAR,Sim,Condutor deixou de manter distância do veículo da frente,2,Colisão traseira,Com Vítimas Feridas,Pleno dia,Crescente,Céu Claro,Dupla,Reta,Não,1182436,Automóvel,HYUNDAI/CRETA1TA PLTINUM,2022,Condutor,Ileso,57,Masculino,1,0,0,0,-26.901793,-48.931812,SPRF-SC,DEL04-SC,UOP01-DEL04-SC,HYUNDAI,CRETA1TA PLTINUM,Sem Feridos,Sul,15,Tarde
658113,1482946,2025-01-29,quarta-feira,19:35:00,PE,116,"35,2",SALGUEIRO,Sim,Velocidade Incompatível,2,Capotamento,Com Vítimas Feridas,Plena Noite,Decrescente,Céu Claro,Simples,Aclive,Não,1183608,Automóvel,TOYOTA/COROLLA XEI20FLEX,2015,Passageiro,Lesões Leves,59,Masculino,0,1,0,0,-8.144699,-39.111214,SPRF-PE,DEL05-PE,UOP01-DEL05-PE,TOYOTA,COROLLA XEI20FLEX,Leve,Nordeste,19,Noite
668880,,2025-03-22,sábado,18:20:00,SE,101,"72,7",MARUIM,Sim,Animais na Pista,1,Atropelamento de Animal,Com Vítimas Feridas,Plena Noite,Crescente,Céu Claro,Dupla,Reta,Não,1204318,Semireboque,SR/NOMA SR3E27 BCM,2012,,,,,,,,,-10.75270339,-37.10048678,SPRF-SE,DEL01-SE,UOP01-DEL01-SE,SR,NOMA SR3E27 BCM,Sem Feridos,Nordeste,18,Noite
656267,1478096,2025-01-20,segunda-feira,11:15:00,RJ,101,415,MANGARATIBA,Sim,Condutor deixou de manter distância do veículo da frente,1,Colisão traseira,Sem Vítimas,Pleno dia,Crescente,Céu Claro,Dupla,Reta,Não,1180008,Automóvel,FIAT/PALIO WK ADVEN FLEX,2010,Condutor,Ileso,56,Masculino,1,0,0,0,-22.90433243,-43.88181398,SPRF-RJ,DEL03-RJ,UOP01-DEL03-RJ,FIAT,PALIO WK ADVEN FLEX,Sem Feridos,Sudeste,11,Manhã
695497,1546741,2025-06-03,terça-feira,05:54:00,TO,153,"645,7",DUERE,Sim,Condutor Dormindo,1,Saída de leito carroçável,Com Vítimas Feridas,Plena Noite,Crescente,Céu Claro,Simples,Reta,Não,1233994,Caminhão-trator,VOLVO/FH 460 6X4T,2019,Condutor,Lesões Leves,51,Masculino,0,1,0,0,-11.57958347,-49.03261186,SPRF-TO,DEL01-TO,UOP02-DEL01-TO,VOLVO,FH 460 6X4T,Leve,Norte,5,Manhã
672719,1518566,2025-03-01,sábado,08:40:00,BA,110,343,ALAGOINHAS,Não,Ingestão de álcool pelo condutor,2,Colisão com objeto,Com Vítimas Feridas,Pleno dia,Crescente,Nublado,Simples,Curva,Não,1211724,Automóvel,FIAT/PALIO FIRE WAY,2014,Passageiro,Lesões Graves,23,Masculino,0,0,1,0,-12.21168772,-38.41458356,SPRF-BA,DEL01-BA,UOP04-DEL01-BA,FIAT,PALIO FIRE WAY,Grave,Nordeste,8,Manhã
665797,1502232,2025-03-07,sexta-feira,19:45:00,PR,116,146,MANDIRITUBA,Sim,Transitar na contramão,3,Colisão transversal,Com Vítimas Feridas,Plena Noite,Crescente,Céu Claro,Simples,Reta,Não,1198500,Ônibus,MERCEDES BENZ/,1973,Passageiro,Lesões Leves,61,Feminino,0,1,0,0,-25.820747,-49.334195,SPRF-PR,DEL01-PR,UOP03-DEL01-PR,MERCEDES BENZ,,Leve,Sul,19,Noite
665719,1501973,2025-03-07,sexta-feira,11:32:00,PA,230,115,MARABA,Não,Velocidade Incompatível,4,Queda de ocupante de veículo,Com Vítimas Fatais,Pleno dia,Decrescente,Céu Claro,Dupla,Reta,Sim,1198301,Motocicleta,HONDA/CG 160 TITAN,2022,Condutor,Lesões Leves,22,Masculino,0,1,0,0,-5.36074721,-49.0809614,SPRF-PA,DEL03-PA,UOP01-DEL03-PA,HONDA,CG 160 TITAN,Leve,Norte,11,Manhã
661616,1491973,2025-02-15,sábado,19:10:00,MT,163,203,RONDONOPOLIS,Não,Condutor usando celular,5,Queda de ocupante de veículo,Com Vítimas Fatais,Plena Noite,Decrescente,Céu Claro,Dupla,Reta;Viaduto,Sim,1190354,Caminhão-trator,SCANIA/R500 A6X4,2019,Condutor,Ileso,45,Masculino,1,0,0,0,-16.47232462,-54.65507269,SPRF-MT,DEL05-MT,UOP02-DEL05-MT,SCANIA,R500 A6X4,Sem Feridos,Centro-Oeste,19,Noite
653691,1472277,2025-01-07,terça-feira,03:00:00,PI,135,580,CORRENTE,Não,Velocidade Incompatível,2,Saída de leito carroçável,Com Vítimas Fatais,Plena Noite,Crescente,Nublado,Simples,Reta,Não,1175165,Ônibus,MBENZ/MPOLO PARADISO R,2015,Passageiro,Não Informado,,Não Informado,0,0,0,0,-10.35204598,-45.16752282,SPRF-PI,DEL03-PI,UOP02-DEL03-PI,MBENZ,MPOLO PARADISO R,Sem Feridos,Nordeste,3,Madrugada
667022,1505197,2025-03-13,quinta-feira,14:15:00,BA,116,674,JEQUIE,Sim,Reação tardia ou ineficiente do condutor,1,Queda de ocupante de veículo,Com Vítimas Feridas,Pleno dia,Crescente,Céu Claro,Simples,Reta,Sim,1200815,Ciclomotor,,0,Condutor,Lesões Leves,21,Feminino,0,1,0,0,-13.86479392,-40.11302939,SPRF-BA,DEL03-BA,UOP01-DEL03-BA,,,Leve,Nordeste,14,Tarde
696769,1549884,2025-06-08,domingo,08:15:00,BA,20,132,SAO DESIDERIO,Sim,Ingestão de álcool pelo condutor,1,Colisão traseira,Com Vítimas Feridas,Pleno dia,Decrescente,Céu Claro,Simples,Aclive;Reta,Não,1236577,Automóvel,VW/GOLF 1.6 SPORTLINE,2012,Condutor,Lesões Leves,42,Masculino,0,1,0,0,-12.81934142,-45.95763582,SPRF-BA,DEL10-BA,UOP01-DEL10-BA,VW,GOLF 1.6 SPORTLINE,Leve,Nordeste,8,Manhã
687374,1527440,2025-04-26,sábado,03:50:00,SC,101,"105,6",PENHA,Sim,Ingestão de álcool pelo condutor,3,Saída de leito carroçável,Com Vítimas Fatais,Plena Noite,Decrescente,Nublado,Dupla,Reta,Não,1218495,Automóvel,VW/GOLF GTI AC,2015,Passageiro,Lesões Leves,18,Feminino,0,1,0,0,-26.80718467,-48.68059007,SPRF-SC,DEL03-SC,UOP02-DEL03-SC,VW,GOLF GTI AC,Leve,Sul,3,Madrugada
664623,1499116,2025-03-01,sábado,20:40:00,PR,277,307,PRUDENTOPOLIS,Sim,Ausência de reação do condutor,2,Incêndio,Sem Vítimas,Plena Noite,Decrescente,Céu Claro,Simples,Desvio Temporário,Não,1196148,Caminhão-trator,M.BENZ/ACTROS 2651S 6X4,2022,Condutor,Ileso,42,Masculino,1,0,0,0,-25.31599988,-51.19617476,SPRF-PR,DEL08-PR,UOP01-DEL08-PR,M.BENZ,ACTROS 2651S 6X4,Sem Feridos,Sul,20,Noite
699881,1557332,2025-06-22,domingo,11:55:00,MT,158,633,NOVA XAVANTINA,Sim,Transitar na contramão,2,Tombamento,Com Vítimas Fatais,Pleno dia,Crescente,Céu Claro,Simples,Curva,Não,1242665,Caminhonete,CHEVROLET/S10 LTZ DD4A,2023,Passageiro,Ileso,16,Masculino,1,0,0,0,-14.53656346,-52.32989788,SPRF-MT,DEL07-MT,UOP02-DEL07-MT,CHEVROLET,S10 LTZ DD4A,Sem Feridos,Centro-Oeste,11,Manhã
654741,1473887,2025-01-12,domingo,23:40:00,ES,101,64,SAO MATEUS,Sim,Ingestão de álcool pelo condutor,1,Colisão frontal,Com Vítimas Feridas,Plena Noite,Crescente,Garoa/Chuvisco,Simples,Reta,Não,1177140,Bicicleta,,0,Condutor,Lesões Leves,38,Masculino,0,1,0,0,-18.70428583,-39.87065983,SPRF-ES,DEL04-ES,UOP02-DEL04-ES,,,Leve,Sudeste,23,Noite
695708,,2025-04-27,domingo,16:55:00,ES,101,361,GUARAPARI,Não,Curva acentuada,1,Tombamento,Com Vítimas Fatais,Pleno dia,Crescente,Nublado,Simples,Declive;Curva,Não,1234413,Semireboque,SR/FACCHINI SRF CAED,2015,,,,,,,,,-20.6580058,-40.6172825,SPRF-ES,DEL03-ES,UOP01-DEL03-ES,SR,FACCHINI SRF CAED,Sem Feridos,Sudeste,16,Tarde
663437,,2025-02-24,segunda-feira,13:40:00,MS,262,28,TRES LAGOAS,Sim,Transitar na contramão,1,Colisão frontal,Com Vítimas Fatais,Pleno dia,Crescente,Céu Claro,Simples,Reta,Não,1193904,Semireboque,SR/GUERRA AG TO,2013,,,,,,,,,-20.74027987,-52.10289717,SPRF-MS,DEL07-MS,UOP01-DEL07-MS,SR,GUERRA AG TO,Sem Feridos,Centro-Oeste,13,Tarde
691412,1537065,2025-03-28,sexta-feira,23:30:00,MA,135,"22,5",SAO LUIS,Sim,Ausência de reação do condutor,1,Colisão traseira,Com Vítimas Feridas,Plena Noite,Decrescente,Ignorado,Dupla,Reta,Sim,1226172,Automóvel,VW/NOVO VOYAGE 1.0,2012,Condutor,Ileso,,Masculino,1,0,0,0,-2.55615371,-44.3111918,SPRF-MA,DEL01-MA,UOP01-DEL01-MA,VW,NOVO VOYAGE 1.0,Sem Feridos,Nordeste,23,Noite
687533,1529522,2025-04-26,sábado,19:55:00,PR,153,"18,3",JACAREZINHO,Sim,Pedestre andava na pista,1,Atropelamento de Pedestre,Com Vítimas Feridas,Plena Noite,Decrescente,Nublado,Simples,Reta,Sim,1218700,Automóvel,FORD/FIESTA FLEX,2008,Condutor,Lesões Leves,55,Masculino,0,1,0,0,-23.14875986,-49.95297639,SPRF-PR,DEL07-PR,UOP04-DEL07-PR,FORD,FIESTA FLEX,Leve,Sul,19,Noite
673723,,2025-04-14,segunda-feira,18:45:00,MG,40,"447,3",CAETANOPOLIS,Não,Sinalização encoberta,1,Colisão frontal,Com Vítimas Feridas,Plena Noite,Crescente,Nublado,Simples,Reta;Interseção de Vias,Sim,1213709,Semireboque,SR/RANDON,1984,,,,,,,,,-19.29665,-44.38161,SPRF-MG,DEL02-MG,UOP01-DEL02-MG,SR,RANDON,Sem Feridos,Sudeste,18,Noite
665349,1501063,2025-03-05,quarta-feira,16:20:00,MG,40,"702,8",BARBACENA,Não,Ausência de reação do condutor,6,Capotamento,Com Vítimas Feridas,Pleno dia,Crescente,Céu Claro,Dupla,Reta,Sim,1197604,Automóvel,TOYOTA/ETIOS HB CROSS,2015,Condutor,Lesões Leves,53,Feminino,0,1,0,0,-21.21583782,-43.74732575,SPRF-MG,DEL05-MG,UOP02-DEL05-MG,TOYOTA,ETIOS HB CROSS,Leve,Sudeste,16,Tarde
701558,1561339,2025-06-30,segunda-feira,12:20:00,MG,116,"279,5",TEOFILO OTONI,Sim,Reação tardia ou ineficiente do condutor,3,Queda de ocupante de veículo,Com Vítimas Feridas,Pleno dia,Crescente,Céu Claro,Simples,Reta,Não,1245912,Motocicleta,HONDA/CB 300R,2011,Condutor,Lesões Leves,37,Masculino,0,1,0,0,-17.87701144,-41.52111053,SPRF-MG,DEL11-MG,UOP01-DEL11-MG,HONDA,CB 300R,Leve,Sudeste,12,Tarde
658883,1485086,2025-02-02,domingo,20:00:00,TO,153,644,DUERE,Não,Velocidade Incompatível,5,Tombamento,Com Vítimas Fatais,Plena Noite,Crescente,Chuva,Simples,Reta,Não,1185156,Automóvel,HONDA/CIVIC EXS,2012,Condutor,Óbito,33,Masculino,0,0,0,1,-11.48307595,-49.00099215,SPRF-TO,DEL01-TO,UOP02-DEL01-TO,HONDA,CIVIC EXS,Fatal,Norte,20,Noite
662660,1494461,2025-02-21,sexta-feira,08:00:00,PR,476,"145,7",CURITIBA,Sim,Trafegar com motocicleta (ou similar) entre as faixas,1,Colisão lateral mesmo sentido,Com Vítimas Feridas,Amanhecer,Crescente,Nublado,Dupla,Reta,Não,1192383,Motocicleta,,0,Condutor,Não Informado,,Não Informado,0,0,0,0,-25.550225,-49.327464,SPRF-PR,DEL01-PR,UOP06-DEL01-PR,,,Sem Feridos,Sul,8,Manhã
692374,1539339,2025-05-19,segunda-feira,15:16:00,PE,101,131,AGUA PRETA,Não,Reação tardia ou ineficiente do condutor,3,Colisão traseira,Com Vítimas Feridas,Pleno dia,Decrescente,Céu Claro,Dupla,Reta,Não,1228023,Caminhonete,RENAULT/MASTER FLASH AM5,2024,Condutor,Ileso,31,Masculino,1,0,0,0,-8.5731104,-35.4809596,SPRF-PE,DEL01-PE,UOP03-DEL01-PE,RENAULT,MASTER FLASH AM5,Sem Feridos,Nordeste,15,Tarde
668710,1511037,2025-03-21,sexta-feira,16:10:00,MT,163,1023,PEIXOTO DE AZEVEDO,Sim,Ingestão de álcool pelo condutor,1,Colisão lateral sentido oposto,Sem Vítimas,Pleno dia,Crescente,Céu Claro,Simples,Curva;Aclive,Não,1205463,Camioneta,RENAULT/DUSTER 20 D 4X2,2016,Passageiro,Ileso,13,Masculino,1,0,0,0,-10.29335,-55.029543,SPRF-MT,DEL06-MT,UOP03-DEL06-MT,RENAULT,DUSTER 20 D 4X2,Sem Feridos,Centro-Oeste,16,Tarde
661865,1492416,2025-02-16,domingo,23:17:00,MA,135,20,SAO LUIS,Não,Iluminação deficiente,1,Colisão traseira,Sem Vítimas,Plena Noite,Decrescente,Céu Claro,Dupla,Reta,Sim,1190728,Caminhonete,RENAULT/MASTERAMB RONTAN,2012,Passageiro,Ileso,29,Masculino,1,0,0,0,-2.73143875,-44.33163334,SPRF-MA,DEL01-MA,UOP01-DEL01-MA,RENAULT,MASTERAMB RONTAN,Sem Feridos,Nordeste,23,Noite
687267,1527191,2025-04-25,sexta-feira,15:00:00,MG,251,492,FRANCISCO SA,Sim,Demais falhas mecânicas ou elétricas,1,Colisão lateral sentido oposto,Com Vítimas Feridas,Pleno dia,Crescente,Céu Claro,Simples,Reta,Não,1218295,Automóvel,I/NISSAN VERSA 16SV FLEX,2014,Passageiro,Ileso,41,Feminino,1,0,0,0,-16.60520622,-43.63155842,SPRF-MG,DEL12-MG,UOP01-DEL12-MG,I,NISSAN VERSA 16SV FLEX,Sem Feridos,Sudeste,15,Tarde
655395,1475610,2025-01-16,quinta-feira,06:50:00,PR,277,"463,2",LARANJEIRAS DO SUL,Sim,Demais Fenômenos da natureza,1,Colisão traseira,Com Vítimas Feridas,Pleno dia,Decrescente,Céu Claro,Simples,Aclive;Reta,Não,1178406,Automóvel,I/GM CLASSIC LIFE,2006,Passageiro,Lesões Leves,81,Feminino,0,1,0,0,-25.354804,-52.481168,SPRF-PR,DEL04-PR,UOP02-DEL04-PR,I,GM CLASSIC LIFE,Leve,Sul,6,Manhã
694430,1544161,2025-05-21,quarta-feira,18:00:00,PR,277,74,SAO JOSE DOS PINHAIS,Não,Trafegar com motocicleta (ou similar) entre as faixas,4,Queda de ocupante de veículo,Com Vítimas Feridas,Plena Noite,Decrescente,Nublado,Dupla,Reta,Sim,1231953,Motocicleta,YAMAHA/NMAX,2020,Condutor,Lesões Leves,32,Masculino,0,1,0,0,-25.49459887,-49.16617719,SPRF-PR,DEL01-PR,UOP07-DEL01-PR,YAMAHA,NMAX,Leve,Sul,18,Noite
660353,1488635,2025-02-09,domingo,19:05:00,MA,222,665,ACAILANDIA,Sim,Pedestre andava na pista,1,Atropelamento de Pedestre,Com Vítimas Feridas,Plena Noite,Decrescente,Céu Claro,Simples,Declive,Não,,,,,Pedestre,Lesões Graves,47,Masculino,0,0,1,0,-4.89367779,-47.38426513,SPRF-MA,DEL04-MA,UOP03-DEL04-MA,,,Grave,Nordeste,19,Noite
694514,1545432,2025-05-29,quinta-feira,14:30:00,PI,135,229,COLONIA DO GURGUEIA,Não,Falta de elemento de contenção que evite a saída do leito carroçável,5,Tombamento,Com Vítimas Fatais,Pleno dia,Decrescente,Céu Claro,Simples,Reta;Declive,Sim,1232776,Motocicleta,HONDA/POP100,2010,Condutor,Óbito,71,Masculino,0,0,0,1,-8.191485,-43.792903,SPRF-PI,DEL03-PI,UOP02-DEL03-PI,HONDA,POP100,Fatal,Nordeste,14,Tarde
671882,1518182,2025-04-06,domingo,01:10:00,SC,101,"84,6",BARRA VELHA,Sim,Pedestre cruzava a pista fora da faixa,2,Colisão traseira,Com Vítimas Fatais,Plena Noite,Crescente,Nublado,Múltipla,Reta,Sim,,,,,Testemunha,Não Informado,,Não Informado,0,0,0,0,-26.630042,-48.705923,SPRF-SC,DEL03-SC,UOP02-DEL03-SC,,,Sem Feridos,Sul,1,Madrugada
668001,1507444,2025-03-18,terça-feira,09:35:00,RS,116,260,CANOAS,Sim,Ausência de reação do condutor,1,Colisão traseira,Com Vítimas Feridas,Pleno dia,Decrescente,Céu Claro,Múltipla,Reta,Não,1202545,Automóvel,RENAULT/SANDERO ST16 SCE,2017,Condutor,Ileso,35,Feminino,1,0,0,0,-29.8724378,-51.1784036,SPRF-RS,DEL01-RS,UOP01-DEL01-RS,RENAULT,SANDERO ST16 SCE,Sem Feridos,Sul,9,Manhã
697602,1551660,2025-04-23,quarta-feira,09:29:00,RJ,101,224,SILVA JARDIM,Sim,Reação tardia ou ineficiente do condutor,1,Colisão lateral mesmo sentido,Com Vítimas Feridas,Pleno dia,Crescente,Céu Claro,Dupla,Reta,Não,1238088,Motocicleta,HONDA/CG 160 START,0,Passageiro,Lesões Graves,22,Masculino,0,0,1,0,-22.51398417,-42.31384277,SPRF-RJ,DEL02-RJ,UOP03-DEL02-RJ,HONDA,CG 160 START,Grave,Sudeste,9,Manhã
670241,1512772,2025-03-28,sexta-feira,21:10:00,AM,319,707,HUMAITA,Não,Ausência de reação do condutor,3,Queda de ocupante de veículo,Com Vítimas Fatais,Plena Noite,Decrescente,Nublado,Simples,Reta;Aclive,Não,1206900,Automóvel,HONDA/CITY LX FLEX,2010,Passageiro,Lesões Leves,18,Feminino,0,1,0,0,-7.778945,-63.15419801,SPRF-AM,DEL01-AM,UOP05-DEL01-AM,HONDA,CITY LX FLEX,Leve,Norte,21,Noite
672511,1518163,2025-04-09,quarta-feira,07:30:00,ES,262,70,MARECHAL FLORIANO,Não,Velocidade Incompatível,1,Colisão traseira,Com Vítimas Feridas,Pleno dia,Crescente,Céu Claro,Simples,Curva;Aclive,Não,1211384,Motocicleta,HONDA/NXR160 BROS ESDD,2023,Condutor,Lesões Leves,26,Masculino,0,1,0,0,-20.415415,-40.867134,SPRF-ES,DEL01-ES,UOP02-DEL01-ES,HONDA,NXR160 BROS ESDD,Leve,Sudeste,7,Manhã
671410,1516693,2025-04-04,sexta-feira,02:00:00,PR,277,383,CANDOI,Não,Transitar na contramão,1,Colisão frontal,Com Vítimas Feridas,Plena Noite,Crescente,Céu Claro,Simples,Reta,Não,1209198,Ônibus,SCANIA/COMIL CAMPIONE DD,2022,Passageiro,Ileso,,Masculino,1,0,0,0,-25.43386,-51.80727,SPRF-PR,DEL08-PR,UOP01-DEL08-PR,SCANIA,COMIL CAMPIONE DD,Sem Feridos,Sul,2,Madrugada
689674,1533093,2025-05-07,quarta-feira,16:00:00,PE,232,364,FLORES,Não,Reação tardia ou ineficiente do condutor,1,Colisão lateral sentido oposto,Com Vítimas Feridas,Pleno dia,Decrescente,Nublado,Simples,Curva;Declive,Não,1222823,Caminhonete,CHEVROLET/S10 LS DD4,2024,Condutor,Lesões Leves,45,Masculino,0,1,0,0,-8.04023,-37.919742,SPRF-PE,DEL04-PE,UOP01-DEL04-PE,CHEVROLET,S10 LS DD4,Leve,Nordeste,16,Tarde
669709,1511401,2025-03-13,quinta-feira,10:40:00,MG,262,"702,6",ARAXA,Sim,Reação tardia ou ineficiente do condutor,1,Colisão lateral mesmo sentido,Sem Vítimas,Pleno dia,Decrescente,Céu Claro,Simples,Ponte;Reta;Em Obras,Não,1205791,Caminhão-trator,FORD/CARGO 2842 AT,2013,Passageiro,Ileso,56,Feminino,1,0,0,0,-19.57241464,-47.04709625,SPRF-MG,DEL08-MG,UOP01-DEL08-MG,FORD,CARGO 2842 AT,Sem Feridos,Sudeste,10,Manhã
664679,1499227,2025-03-01,sábado,23:40:00,MT,364,378,SANTO ANTONIO DO LEVERGER,Sim,Reação tardia ou ineficiente do condutor,2,Tombamento,Com Vítimas Fatais,Plena Noite,Decrescente,Céu Claro,Dupla,Reta,Não,1196222,Caminhão-trator,VOLVO/FH 540 6X4T,2012,Condutor,Ileso,38,Masculino,1,0,0,0,-15.70331456,-55.78467965,SPRF-MT,DEL01-MT,UOP02-DEL01-MT,VOLVO,FH 540 6X4T,Sem Feridos,Centro-Oeste,23,Noite
690470,1534823,2025-05-11,domingo,02:30:00,RO,364,425,JARU,Não,Ausência de reação do condutor,2,Tombamento,Com Vítimas Feridas,Plena Noite,Decrescente,Nublado,Múltipla,Reta;Interseção de Vias,Sim,1224337,Motoneta,HONDA/BIZ ES,2025,Condutor,Lesões Leves,23,Masculino,0,1,0,0,-10.43598216,-62.47440783,SPRF-RO,DEL03-RO,UOP02-DEL03-RO,HONDA,BIZ ES,Leve,Norte,2,Madrugada
669583,1511147,2025-03-25,terça-feira,19:25:00,MG,365,"139,8",VARZEA DA PALMA,Sim,Reação tardia ou ineficiente do condutor,2,Tombamento,Com Vítimas Feridas,Plena Noite,Crescente,Nublado,Simples,Curva,Não,1205556,Caminhão-trator,VOLVO/FH 460 6X2T,2012,Condutor,Lesões Leves,40,Masculino,0,1,0,0,-17.196456,-44.820867,SPRF-MG,DEL12-MG,UOP01-DEL12-MG,VOLVO,FH 460 6X2T,Leve,Sudeste,19,Noite
654942,1474445,2025-01-13,segunda-feira,20:15:00,RS,290,"490,7",ROSARIO DO SUL,Sim,Reação tardia ou ineficiente do condutor,1,Colisão frontal,Com Vítimas Feridas,Plena Noite,Crescente,Céu Claro,Simples,Reta,Não,1177521,Automóvel,NISSAN/KICKS S MT,2018,Passageiro,Ileso,27,Feminino,1,0,0,0,-30.234781,-55.022316,SPRF-RS,DEL11-RS,UOP02-DEL11-RS,NISSAN,KICKS S MT,Sem Feridos,Sul,20,Noite
658721,1484556,2025-02-01,sábado,21:20:00,MG,116,397,GOVERNADOR VALADARES,Não,Curva acentuada,1,Colisão frontal,Com Vítimas Feridas,Plena Noite,Decrescente,Céu Claro,Simples,Curva;Declive,Não,1184806,Automóvel,VW/PARATI CL,1995,Condutor,Lesões Leves,52,Masculino,0,1,0,0,-18.74618919,-41.98314664,SPRF-MG,DEL06-MG,UOP01-DEL06-MG,VW,PARATI CL,Leve,Sudeste,21,Noite
666732,1504390,2025-03-12,quarta-feira,06:40:00,SC,101,"275,8",IMBITUBA,Sim,Avarias e/ou desgaste excessivo no pneu,1,Colisão com objeto,Com Vítimas Feridas,Pleno dia,Crescente,Chuva,Múltipla,Reta,Não,1200163,Caminhão,VW/17.230 CRM 4X2,2021,Passageiro,Ileso,38,Masculino,1,0,0,0,-28.155487,-48.69277,SPRF-SC,DEL02-SC,UOP03-DEL02-SC,VW,17.230 CRM 4X2,Sem Feridos,Sul,6,Manhã
